busstop_name,latitude,longitude,gu_name,dong_name,full_name
종로2가사거리,126.9877861534,37.5697641508,종로구,종로1.2.3.4가동,서울특별시 종로구 종로1.2.3.4가동
창경궁.서울대학교병원,126.9965201597,37.5791788583,종로구,종로1.2.3.4가동,서울특별시 종로구 종로1.2.3.4가동
명륜3가.성대입구,126.9982901625,37.5827088189,종로구,혜화동,서울특별시 종로구 혜화동
종로2가.삼일교,126.9875072018,37.5685822333,종로구,종로1.2.3.4가동,서울특별시 종로구 종로1.2.3.4가동
혜화동로터리.여운형활동터,127.0016943494,37.5862299819,종로구,혜화동,서울특별시 종로구 혜화동
서대문역사거리,126.966960795,37.5662075233,종로구,교남동,서울특별시 종로구 교남동
서울역사박물관.경희궁앞,126.9704199006,37.569098089,종로구,사직동,서울특별시 종로구 사직동
서울역사박물관.경희궁앞,126.970441967,37.5693360157,종로구,사직동,서울특별시 종로구 사직동
광화문,126.9752405641,37.5700507533,종로구,사직동,서울특별시 종로구 사직동
광화문,126.9780908549,37.5702957096,종로구,종로1.2.3.4가동,서울특별시 종로구 종로1.2.3.4가동
종로1가,126.9810669062,37.5700724512,종로구,종로1.2.3.4가동,서울특별시 종로구 종로1.2.3.4가동
종로1가,126.9813905902,37.5702666069,종로구,종로1.2.3.4가동,서울특별시 종로구 종로1.2.3.4가동
종로2가,126.985541114,37.570087252,종로구,종로1.2.3.4가동,서울특별시 종로구 종로1.2.3.4가동
종로2가,126.9862540445,37.5702679499,종로구,종로1.2.3.4가동,서울특별시 종로구 종로1.2.3.4가동
종로3가.탑골공원,126.9895689652,37.5701875394,종로구,종로1.2.3.4가동,서울특별시 종로구 종로1.2.3.4가동
종로3가.탑골공원,126.9899682503,37.5703886931,종로구,종로1.2.3.4가동,서울특별시 종로구 종로1.2.3.4가동
종로4가.종묘,126.9947286676,37.5704168801,종로구,종로1.2.3.4가동,서울특별시 종로구 종로1.2.3.4가동
종로4가.종묘,126.9952769536,37.5706002885,종로구,종로1.2.3.4가동,서울특별시 종로구 종로1.2.3.4가동
종로5가.광장시장,126.9988533013,37.5707157083,종로구,종로1.2.3.4가동,서울특별시 종로구 종로1.2.3.4가동
종로5가.광장시장,126.9993198827,37.5709076392,종로구,종로1.2.3.4가동,서울특별시 종로구 종로1.2.3.4가동
종로6가.동대문종합시장,127.0034688409,37.5709177804,종로구,종로5.6가동,서울특별시 종로구 종로5.6가동
종로6가.동대문종합시장,127.0057093611,37.571151812,종로구,종로5.6가동,서울특별시 종로구 종로5.6가동
동대문역.흥인지문,127.0134620695,37.5722800814,종로구,창신1동,서울특별시 종로구 창신1동
동대문(흥인지문),127.0124927764,37.5721671928,종로구,창신2동,서울특별시 종로구 창신2동
동묘앞,127.0184391215,37.5737207156,종로구,숭인2동,서울특별시 종로구 숭인2동
동묘앞,127.0196389758,37.57430372,종로구,숭인2동,서울특별시 종로구 숭인2동
경기상고,126.9694326007,37.5875738987,종로구,청운효자동,서울특별시 종로구 청운효자동
신교동,126.9703409831,37.5833029548,종로구,청운효자동,서울특별시 종로구 청운효자동
경기상고,126.9696701141,37.5871710777,종로구,청운효자동,서울특별시 종로구 청운효자동
경복고교,126.9710437135,37.5851124767,종로구,청운효자동,서울특별시 종로구 청운효자동
청운중학교,126.9725944389,37.5879008533,종로구,청운효자동,서울특별시 종로구 청운효자동
자하문고개.윤동주문학관,126.9671282401,37.5921935787,종로구,청운효자동,서울특별시 종로구 청운효자동
자하문고개.윤동주문학관,126.9671676756,37.5922574065,종로구,청운효자동,서울특별시 종로구 청운효자동
청운중학교,126.9724614507,37.5881286565,종로구,청운효자동,서울특별시 종로구 청운효자동
경복고교,126.9711479623,37.5850459315,종로구,청운효자동,서울특별시 종로구 청운효자동
통인시장종로구보건소,126.9711088601,37.5803317347,종로구,청운효자동,서울특별시 종로구 청운효자동
통인시장종로구보건소,126.971244042,37.5804892941,종로구,청운효자동,서울특별시 종로구 청운효자동
효자동,126.9705347538,37.5830818402,종로구,청운효자동,서울특별시 종로구 청운효자동
사직단.어린이도서관,126.9680206454,37.5751125217,종로구,사직동,서울특별시 종로구 사직동
사직동주민센터,126.971317861,37.5760900645,종로구,사직동,서울특별시 종로구 사직동
경복궁역,126.9722922115,37.5768887748,종로구,사직동,서울특별시 종로구 사직동
경복궁역,126.9721843535,37.5776406417,종로구,사직동,서울특별시 종로구 사직동
경복궁,126.9787204661,37.5756938103,종로구,종로1.2.3.4가동,서울특별시 종로구 종로1.2.3.4가동
KT광화문지사,126.9772022826,37.5724045047,종로구,종로1.2.3.4가동,서울특별시 종로구 종로1.2.3.4가동
국립고궁박물관,126.9739881126,37.5784948969,종로구,청운효자동,서울특별시 종로구 청운효자동
광화문,126.9764106652,37.5700398187,종로구,사직동,서울특별시 종로구 사직동
서울역사박물관.경교장.강북삼성병원,126.9713844203,37.5699306396,종로구,사직동,서울특별시 종로구 사직동
광화문.금호아시아나본관앞,126.9731310593,37.5702090071,종로구,사직동,서울특별시 종로구 사직동
광화문,126.9757675414,37.5702390837,종로구,사직동,서울특별시 종로구 사직동
세종문화회관,126.9766708825,37.5735846442,종로구,사직동,서울특별시 종로구 사직동
서울경찰청.경복궁역,126.9714954531,37.5759010413,종로구,사직동,서울특별시 종로구 사직동
사직단,126.9680704944,37.5749465941,종로구,사직동,서울특별시 종로구 사직동
광화문.광화문빌딩,126.9768398269,37.5696924869,종로구,사직동,서울특별시 종로구 사직동
덕성여중고,126.9819731191,37.5757394332,종로구,삼청동,서울특별시 종로구 삼청동
안국역.서울공예박물관,126.984096286,37.5759711778,종로구,삼청동,서울특별시 종로구 삼청동
국민은행세검정지점,126.960969,37.604688,종로구,부암동,서울특별시 종로구 부암동
세검정초등학교,126.9612835938,37.6024879601,종로구,부암동,서울특별시 종로구 부암동
세검정.상명대,126.9587714965,37.6006650163,종로구,부암동,서울특별시 종로구 부암동
상명대입구.석파랑,126.958688,37.599605,종로구,부암동,서울특별시 종로구 부암동
하림각,126.9618276217,37.5982689981,종로구,부암동,서울특별시 종로구 부암동
자하문터널입구.석파정,126.9637111581,37.5955802677,종로구,부암동,서울특별시 종로구 부암동
부암동주민센터.무계원,126.964027,37.592874,종로구,부암동,서울특별시 종로구 부암동
부암동주민센터.무계원,126.9651309715,37.5927575406,종로구,부암동,서울특별시 종로구 부암동
자하문터널입구.석파정,126.9638097255,37.5955917876,종로구,부암동,서울특별시 종로구 부암동
하림각,126.9622117002,37.5981436329,종로구,부암동,서울특별시 종로구 부암동
상명대입구.세검정교회,126.9592185771,37.5995597419,종로구,부암동,서울특별시 종로구 부암동
세검정.상명대,126.9588889836,37.6006149939,종로구,부암동,서울특별시 종로구 부암동
세검정초등학교,126.961331061,37.6022912367,종로구,부암동,서울특별시 종로구 부암동
국민은행세검정지점,126.9611311347,37.6047041061,종로구,부암동,서울특별시 종로구 부암동
승가사입구,126.9563453023,37.6115873346,종로구,평창동,서울특별시 종로구 평창동
구기동현대빌라,126.956472597,37.6100359327,종로구,평창동,서울특별시 종로구 평창동
구기터널.삼성출판박물관,126.956183962,37.608540394,종로구,평창동,서울특별시 종로구 평창동
구기터널.삼성출판박물관,126.9564398314,37.6083597993,종로구,평창동,서울특별시 종로구 평창동
구기동,126.9585967697,37.6070445065,종로구,평창동,서울특별시 종로구 평창동
구기동,126.9590555591,37.6069542341,종로구,평창동,서울특별시 종로구 평창동
승가사입구,126.9564593194,37.6114399205,종로구,평창동,서울특별시 종로구 평창동
갑을씨티텔앞,126.9635570904,37.6043236614,종로구,평창동,서울특별시 종로구 평창동
평창파출소,126.9660715643,37.6052849029,종로구,평창동,서울특별시 종로구 평창동
평창동주민센터,126.9695657901,37.6066085153,종로구,평창동,서울특별시 종로구 평창동
일성아파트,126.972938181,37.6088011743,종로구,평창동,서울특별시 종로구 평창동
롯데아파트,126.9764903684,37.6103923328,종로구,평창동,서울특별시 종로구 평창동
롯데아파트,126.97608754,37.6100941102,종로구,평창동,서울특별시 종로구 평창동
벽산평창힐스아파트,126.9727676987,37.6082771069,종로구,평창동,서울특별시 종로구 평창동
예능교회,126.9700286792,37.6066269493,종로구,평창동,서울특별시 종로구 평창동
서울예술고등학교.평창동주민센터,126.9675554877,37.6058704536,종로구,평창동,서울특별시 종로구 평창동
화정박물관,126.9647520438,37.6045928919,종로구,평창동,서울특별시 종로구 평창동
강북삼성병원,126.9687255308,37.5680683964,종로구,교남동,서울특별시 종로구 교남동
독립문역.서대문형무소역사관,126.9593699374,37.5731514316,종로구,무악동,서울특별시 종로구 무악동
서대문.서울시교육청,126.9644319566,37.5681995005,종로구,교남동,서울특별시 종로구 교남동
서대문역사거리.적십자병원,126.9684410002,37.567780077,종로구,교남동,서울특별시 종로구 교남동
독립문,126.9614824815,37.571119893,종로구,교남동,서울특별시 종로구 교남동
창덕궁.서울돈화문국악당,126.9886004441,37.5774213234,종로구,가회동,서울특별시 종로구 가회동
서린동.SK서린빌딩,126.9802557033,37.5691427552,종로구,종로1.2.3.4가동,서울특별시 종로구 종로1.2.3.4가동
청계1가.광교,126.9849078726,37.5686078815,종로구,종로1.2.3.4가동,서울특별시 종로구 종로1.2.3.4가동
청계2가.수표교,126.99156451,37.5684255774,종로구,종로1.2.3.4가동,서울특별시 종로구 종로1.2.3.4가동
청계4가.세운교,126.9964924987,37.5688576315,종로구,종로1.2.3.4가동,서울특별시 종로구 종로1.2.3.4가동
청계5가.광장시장,126.9998214525,37.5693781242,종로구,종로1.2.3.4가동,서울특별시 종로구 종로1.2.3.4가동
원남동,126.9973383362,37.5745325055,종로구,종로1.2.3.4가동,서울특별시 종로구 종로1.2.3.4가동
창덕궁.우리소리박물관,126.9886344578,37.5772989287,종로구,종로1.2.3.4가동,서울특별시 종로구 종로1.2.3.4가동
안국역.인사동,126.9841842323,37.5758656523,종로구,종로1.2.3.4가동,서울특별시 종로구 종로1.2.3.4가동
조계사.종로경찰서,126.9830699963,37.5723608203,종로구,종로1.2.3.4가동,서울특별시 종로구 종로1.2.3.4가동
조계사.종로경찰서,126.9828944772,37.5724880557,종로구,종로1.2.3.4가동,서울특별시 종로구 종로1.2.3.4가동
안국동,126.982783677,37.5746126493,종로구,종로1.2.3.4가동,서울특별시 종로구 종로1.2.3.4가동
종로5가.효제동.김상옥의거터,127.0021111571,37.5744636711,종로구,종로5.6가동,서울특별시 종로구 종로5.6가동
종로5가.효제초등학교,127.0020279531,37.5728818279,종로구,종로5.6가동,서울특별시 종로구 종로5.6가동
창덕궁.돈화문국악당,126.991061212,37.5774776278,종로구,종로1.2.3.4가동,서울특별시 종로구 종로1.2.3.4가동
종로5가,127.0020674817,37.5705560731,종로구,종로5.6가동,서울특별시 종로구 종로5.6가동
청계6가.동대문시장,127.0028494203,37.5697520006,종로구,종로5.6가동,서울특별시 종로구 종로5.6가동
동대문,127.0085128985,37.5717853606,종로구,종로5.6가동,서울특별시 종로구 종로5.6가동
충신동,127.006331,37.574106,종로구,종로5.6가동,서울특별시 종로구 종로5.6가동
충신동,127.0062426155,37.5744023584,종로구,종로5.6가동,서울특별시 종로구 종로5.6가동
현대그룹빌딩,127.0005178806,37.5759190979,종로구,종로5.6가동,서울특별시 종로구 종로5.6가동
방송통신대.이화장,127.0022981851,37.5781239863,종로구,이화동,서울특별시 종로구 이화동
혜화역.마로니에공원,127.0021325403,37.5811068753,종로구,이화동,서울특별시 종로구 이화동
혜화역.서울대병원입구,127.001921073,37.5810621214,종로구,이화동,서울특별시 종로구 이화동
방송통신대.이화장,127.0020798079,37.5781308016,종로구,이화동,서울특별시 종로구 이화동
이화동(이화장),127.0007063654,37.5760580629,종로구,이화동,서울특별시 종로구 이화동
창경궁.서울대학교병원,126.9967378562,37.5788183311,종로구,이화동,서울특별시 종로구 이화동
이화동(이화장),127.0032823109,37.5760347544,종로구,이화동,서울특별시 종로구 이화동
혜화동로터리,127.0008280557,37.5857259848,종로구,혜화동,서울특별시 종로구 혜화동
명륜동2가.성균관대입구,126.9992936097,37.5834067263,종로구,혜화동,서울특별시 종로구 혜화동
혜화역.서울연극센터(장면총리가옥),127.0014345133,37.584037766,종로구,혜화동,서울특별시 종로구 혜화동
혜화역.동성중고(장면총리가옥),127.0015280585,37.5845415827,종로구,혜화동,서울특별시 종로구 혜화동
종로구민회관.창신동두산아파트,127.0155867992,37.5740922328,종로구,창신1동,서울특별시 종로구 창신1동
동묘역앞,127.0156381868,37.5716870314,종로구,창신1동,서울특별시 종로구 창신1동
동묘역앞,127.0157789136,37.5717866616,종로구,숭인2동,서울특별시 종로구 숭인2동
청계2가교차로,126.9878778705,37.5684809008,종로구,종로1.2.3.4가동,서울특별시 종로구 종로1.2.3.4가동
창신3동주민센터,127.0151880645,37.5787743807,종로구,창신3동,서울특별시 종로구 창신3동
숭인1동주민센터.창신역4번출구,127.0152404443,37.5787517073,종로구,창신3동,서울특별시 종로구 창신3동
동묘역.롯데캐슬천지인,127.0156640117,37.5741819196,종로구,창신1동,서울특별시 종로구 창신1동
신설동로터리,127.0229468784,37.5758561421,종로구,숭인2동,서울특별시 종로구 숭인2동
동묘앞,127.017840741,37.5736846482,종로구,숭인1동,서울특별시 종로구 숭인1동
구기동현대빌라,126.9565956763,37.609642432,종로구,평창동,서울특별시 종로구 평창동
광장시장,126.9978384311,37.5695021129,종로구,종로1.2.3.4가동,서울특별시 종로구 종로1.2.3.4가동
혜화경찰서,126.9975710333,37.5725842353,종로구,종로1.2.3.4가동,서울특별시 종로구 종로1.2.3.4가동
서울역사박물관.김구집무실(경교장),126.9721427974,37.5700297892,종로구,사직동,서울특별시 종로구 사직동
청계3가.관수교,126.9937893395,37.5686091615,종로구,종로1.2.3.4가동,서울특별시 종로구 종로1.2.3.4가동
청계6가.버들다리,127.0080442227,37.5698382937,종로구,종로5.6가동,서울특별시 종로구 종로5.6가동
청계7가.맑은내다리,127.0129568654,37.5699186017,종로구,창신1동,서울특별시 종로구 창신1동
청계8가.영도교,127.0182740454,37.5708946343,종로구,창신1동,서울특별시 종로구 창신1동
원남동사거리,126.9982123686,37.5757861716,종로구,종로1.2.3.4가동,서울특별시 종로구 종로1.2.3.4가동
숭인동,127.0203787429,37.5743812645,종로구,숭인2동,서울특별시 종로구 숭인2동
조계사,126.9830466419,37.5727970374,종로구,종로1.2.3.4가동,서울특별시 종로구 종로1.2.3.4가동
세종문화회관,126.9766820992,37.5733428706,종로구,사직동,서울특별시 종로구 사직동
이화동(이화장),127.0029997189,37.5761871952,종로구,이화동,서울특별시 종로구 이화동
상명대정문,126.9550658958,37.6016661222,종로구,부암동,서울특별시 종로구 부암동
이북오도청,126.9558929899,37.6130517492,종로구,평창동,서울특별시 종로구 평창동
상명대입구.세검정교회,126.9597659183,37.5993933923,종로구,부암동,서울특별시 종로구 부암동
상명대입구.석파랑,126.9583524446,37.5997667554,종로구,부암동,서울특별시 종로구 부암동
종로중부새마을금고,127.006501742,37.5723926096,종로구,종로5.6가동,서울특별시 종로구 종로5.6가동
신설동로터리.신한은행앞.서울풍물시장,127.0232019754,37.5743885428,종로구,숭인2동,서울특별시 종로구 숭인2동
청계2가.삼일교,126.9872038194,37.5682710519,종로구,종로1.2.3.4가동,서울특별시 종로구 종로1.2.3.4가동
청계8가.황학교,127.0227587436,37.5720242074,종로구,숭인2동,서울특별시 종로구 숭인2동
평창동삼성아파트,126.9784,37.611041,종로구,평창동,서울특별시 종로구 평창동
안국역.인사동,126.9854590464,37.5764424624,종로구,종로1.2.3.4가동,서울특별시 종로구 종로1.2.3.4가동
안국역.서울공예박물관,126.9848481735,37.5763115855,종로구,삼청동,서울특별시 종로구 삼청동
창덕궁,126.9890017091,37.5773032332,종로구,종로1.2.3.4가동,서울특별시 종로구 종로1.2.3.4가동
남인사마당,126.9875496939,37.5713121046,종로구,종로1.2.3.4가동,서울특별시 종로구 종로1.2.3.4가동
평창파출소,126.9668406523,37.6056506192,종로구,평창동,서울특별시 종로구 평창동
삼청공원,126.9816830935,37.5882052194,종로구,삼청동,서울특별시 종로구 삼청동
수성동계곡,126.9642468056,37.582079256,종로구,청운효자동,서울특별시 종로구 청운효자동
명륜3가종점,126.9928619763,37.5909474119,종로구,혜화동,서울특별시 종로구 혜화동
명륜새마을금고,126.9966600117,37.5876636376,종로구,혜화동,서울특별시 종로구 혜화동
서대문3번출구,126.96617073,37.5663869527,종로구,교남동,서울특별시 종로구 교남동
낙산공원,127.0087266593,37.5804315002,종로구,이화동,서울특별시 종로구 이화동
인사미술공간.세탁소,126.9893927673,37.5814087002,종로구,가회동,서울특별시 종로구 가회동
화정박물관,126.9648998631,37.6047771434,종로구,평창동,서울특별시 종로구 평창동
금융연수원,126.9816318175,37.5865972134,종로구,삼청동,서울특별시 종로구 삼청동
박노수미술관,126.9666083377,37.581023839,종로구,청운효자동,서울특별시 종로구 청운효자동
샘미용실,126.9932462126,37.5903199403,종로구,혜화동,서울특별시 종로구 혜화동
서울국제고등학교,126.9972253431,37.5890947727,종로구,혜화동,서울특별시 종로구 혜화동
화정박물관,126.965247735,37.6050270981,종로구,평창동,서울특별시 종로구 평창동
적십자병원후문앞,126.9651081997,37.5674610509,종로구,교남동,서울특별시 종로구 교남동
서울성곽.성대후문,126.9896241881,37.5893682771,종로구,혜화동,서울특별시 종로구 혜화동
빨래터.고희동미술관,126.9889777903,37.5830079819,종로구,가회동,서울특별시 종로구 가회동
세검초등학교,126.9613773877,37.6042163468,종로구,부암동,서울특별시 종로구 부암동
삼청동주민센터,126.9819214379,37.5842622386,종로구,삼청동,서울특별시 종로구 삼청동
통인시장,126.9687475247,37.5804505598,종로구,청운효자동,서울특별시 종로구 청운효자동
양현관,126.9936155639,37.5897963848,종로구,혜화동,서울특별시 종로구 혜화동
국민생활관,126.99888615,37.5898299497,종로구,혜화동,서울특별시 종로구 혜화동
오거리,126.9622896284,37.6070850345,종로구,평창동,서울특별시 종로구 평창동
경희궁자이2.3단지,126.9639580128,37.5687281289,종로구,교남동,서울특별시 종로구 교남동
창신쌍용2단지.한성대후문,127.012764,37.581314,종로구,창신3동,서울특별시 종로구 창신3동
통일부,126.9856443966,37.5875737686,종로구,삼청동,서울특별시 종로구 삼청동
원서고개,126.9878078276,37.5831392865,종로구,가회동,서울특별시 종로구 가회동
종로5가입구.혜화경찰서,126.9976354074,37.5717519731,종로구,종로1.2.3.4가동,서울특별시 종로구 종로1.2.3.4가동
삼청파출소,126.9812526796,37.5818129472,종로구,삼청동,서울특별시 종로구 삼청동
오거리.한옥마을입구,126.969546811,37.5794991106,종로구,청운효자동,서울특별시 종로구 청운효자동
명륜시장.성대후문,126.9952894617,37.5885243498,종로구,혜화동,서울특별시 종로구 혜화동
혜화초등학교,126.999881725,37.5872586093,종로구,혜화동,서울특별시 종로구 혜화동
청련사입구,126.9624033159,37.6080241273,종로구,평창동,서울특별시 종로구 평창동
영천시장,126.9627338788,37.5699374908,종로구,교남동,서울특별시 종로구 교남동
명신초.삼선푸르지오.힐스테이트,127.0145302942,37.5821474738,종로구,창신3동,서울특별시 종로구 창신3동
감사원,126.9853527235,37.586300211,종로구,가회동,서울특별시 종로구 가회동
중앙중고,126.986964643,37.5831301356,종로구,가회동,서울특별시 종로구 가회동
인왕빌딩,126.9576747675,37.6078776053,종로구,평창동,서울특별시 종로구 평창동
종로4가.종묘공원,126.9944654727,37.5705694658,종로구,종로1.2.3.4가동,서울특별시 종로구 종로1.2.3.4가동
국립민속박물관,126.9795529385,37.5792552245,종로구,청운효자동,서울특별시 종로구 청운효자동
광화문새마을금고,126.9711439779,37.579429898,종로구,청운효자동,서울특별시 종로구 청운효자동
새마을금고,126.996533,37.587764,종로구,혜화동,서울특별시 종로구 혜화동
혜화우체국,127.0006520186,37.5860600483,종로구,혜화동,서울특별시 종로구 혜화동
언덕앞,126.9637501759,37.6089778424,종로구,평창동,서울특별시 종로구 평창동
경희궁자이4단지,126.9620022341,37.5706271812,종로구,교남동,서울특별시 종로구 교남동
종로센트레빌후문.e편한세상보문아파트,127.0161804993,37.5818155069,종로구,숭인1동,서울특별시 종로구 숭인1동
사우디대사관앞.경남빌라,126.9850108305,37.5841060522,종로구,가회동,서울특별시 종로구 가회동
안국선원.삼거리,126.9849936691,37.582790982,종로구,가회동,서울특별시 종로구 가회동
구기터널입구,126.9568022595,37.6082474751,종로구,평창동,서울특별시 종로구 평창동
종로3가.1.3.5호선,126.9920672899,37.5710576982,종로구,종로1.2.3.4가동,서울특별시 종로구 종로1.2.3.4가동
경복궁,126.9794156341,37.5769491923,종로구,청운효자동,서울특별시 종로구 청운효자동
소나무집,126.9641242035,37.6113353268,종로구,평창동,서울특별시 종로구 평창동
독립문역3번출구,126.9596864458,37.5728405557,종로구,교남동,서울특별시 종로구 교남동
청룡사.보문파크뷰자이아파트,127.0170513118,37.5800194741,종로구,숭인1동,서울특별시 종로구 숭인1동
북촌한옥마을입구.정세권활동터,126.984979219,37.5815994494,종로구,가회동,서울특별시 종로구 가회동
종로1.2.3.4가동주민센터,126.9910278513,37.5743637018,종로구,종로1.2.3.4가동,서울특별시 종로구 종로1.2.3.4가동
창덕궁,126.9905175979,37.5760697805,종로구,종로1.2.3.4가동,서울특별시 종로구 종로1.2.3.4가동
아름다운실버,126.965434339,37.6120220057,종로구,평창동,서울특별시 종로구 평창동
독립문초등학교,126.9607061207,37.5738598134,종로구,교남동,서울특별시 종로구 교남동
종로센트레빌아파트,127.0156406862,37.5803496894,종로구,숭인1동,서울특별시 종로구 숭인1동
가회동주민센터,126.9849330874,37.5799374011,종로구,가회동,서울특별시 종로구 가회동
구기빌라,126.9579491594,37.6062969015,종로구,평창동,서울특별시 종로구 평창동
원남로터리,126.9973507275,37.576224864,종로구,종로1.2.3.4가동,서울특별시 종로구 종로1.2.3.4가동
보현산신각,126.9657636563,37.6134764117,종로구,평창동,서울특별시 종로구 평창동
천사유치원,126.9618149025,37.5746770486,종로구,교남동,서울특별시 종로구 교남동
쌍용아파트입구.창신역,127.015000669,37.5805106317,종로구,창신3동,서울특별시 종로구 창신3동
아름다운가게.정독도서관,126.9850931533,37.5789193765,종로구,가회동,서울특별시 종로구 가회동
산정빌라,126.9574984945,37.6051527285,종로구,평창동,서울특별시 종로구 평창동
이화사거리,127.0021146635,37.5764712733,종로구,이화동,서울특별시 종로구 이화동
박종화고택입구,126.9676636826,37.6143323789,종로구,평창동,서울특별시 종로구 평창동
무악현대아파트후문,126.9619725305,37.5763082198,종로구,교남동,서울특별시 종로구 교남동
헌법재판소.안국역,126.9857195563,37.5775732679,종로구,가회동,서울특별시 종로구 가회동
청구빌라,126.9569707206,37.6046124743,종로구,평창동,서울특별시 종로구 평창동
서울대어린이병원응급실.갑상선센터,126.9994855913,37.5781545815,종로구,이화동,서울특별시 종로구 이화동
화인빌라,126.968548374,37.6129750944,종로구,평창동,서울특별시 종로구 평창동
넓은마당,126.9628884426,37.5752729661,종로구,교남동,서울특별시 종로구 교남동
창신초등학교,127.0153870046,37.5769031178,종로구,창신3동,서울특별시 종로구 창신3동
수운회관,126.9866594846,37.5751924623,종로구,종로1.2.3.4가동,서울특별시 종로구 종로1.2.3.4가동
상명대후문,126.9573503086,37.6040312016,종로구,부암동,서울특별시 종로구 부암동
힐탑,126.9690414211,37.6116396375,종로구,평창동,서울특별시 종로구 평창동
신학대학교총회본부,126.963443511,37.5739759776,종로구,교남동,서울특별시 종로구 교남동
낙원상가,126.987422783,37.5737257903,종로구,종로1.2.3.4가동,서울특별시 종로구 종로1.2.3.4가동
완성빌라,126.9575212198,37.6034067236,종로구,부암동,서울특별시 종로구 부암동
서울대병원장례식장,126.997425207,37.5805363861,종로구,이화동,서울특별시 종로구 이화동
혜화역1번출구,127.0017605774,37.5834355871,종로구,혜화동,서울특별시 종로구 혜화동
감나무골공원,126.9699424574,37.6124056849,종로구,평창동,서울특별시 종로구 평창동
한국사회과학자료원,126.9640914803,37.5736515486,종로구,사직동,서울특별시 종로구 사직동
동묘역,127.0142449326,37.5726953027,종로구,창신1동,서울특별시 종로구 창신1동
금강제화,126.9875700098,37.5705509581,종로구,종로1.2.3.4가동,서울특별시 종로구 종로1.2.3.4가동
경진빌라,126.9578485124,37.601990957,종로구,부암동,서울특별시 종로구 부암동
성균관대학교앞,126.9992643769,37.5833795256,종로구,혜화동,서울특별시 종로구 혜화동
청와대,126.9737030342,37.5827454492,종로구,청운효자동,서울특별시 종로구 청운효자동
춘추문,126.9798548785,37.5829686732,종로구,청운효자동,서울특별시 종로구 청운효자동
경복궁.국립민속박물관,126.9796247398,37.5795059833,종로구,청운효자동,서울특별시 종로구 청운효자동
EN갤러리,126.9706925648,37.6134476936,종로구,평창동,서울특별시 종로구 평창동
종로문화센터,126.9645715447,37.5746630197,종로구,사직동,서울특별시 종로구 사직동
동대문역.2번출구,127.0117451146,37.5719880517,종로구,창신2동,서울특별시 종로구 창신2동
종각역YMCA,126.9853306315,37.5702769422,종로구,종로1.2.3.4가동,서울특별시 종로구 종로1.2.3.4가동
서교빌라,126.9571666115,37.6020376855,종로구,부암동,서울특별시 종로구 부암동
경복궁역,126.9723959832,37.5770552749,종로구,사직동,서울특별시 종로구 사직동
성대입구,126.9989020621,37.5832326513,종로구,혜화동,서울특별시 종로구 혜화동
무애사,126.9718334824,37.6139007744,종로구,평창동,서울특별시 종로구 평창동
단군성전앞,126.9652997161,37.5755877298,종로구,사직동,서울특별시 종로구 사직동
동대문종합시장,127.0062452076,37.5711646171,종로구,종로5.6가동,서울특별시 종로구 종로5.6가동
상명초등학교,126.9566832472,37.6009368253,종로구,부암동,서울특별시 종로구 부암동
법련사,126.9795902866,37.5765892665,종로구,삼청동,서울특별시 종로구 삼청동
광화문새마을금고,126.9710253248,37.5795471405,종로구,청운효자동,서울특별시 종로구 청운효자동
성균관대학교,126.9971586573,37.5850173186,종로구,혜화동,서울특별시 종로구 혜화동
참샘골공원,126.9741218742,37.6146083208,종로구,평창동,서울특별시 종로구 평창동
활터앞,126.9653645968,37.5768524783,종로구,사직동,서울특별시 종로구 사직동
종로5가.3번출구,127.0019716625,37.5714220587,종로구,종로5.6가동,서울특별시 종로구 종로5.6가동
인사동들머리.3.1독립선언터,126.9832650777,37.5720296764,종로구,종로1.2.3.4가동,서울특별시 종로구 종로1.2.3.4가동
정독도서관,126.9800442138,37.580217717,종로구,삼청동,서울특별시 종로구 삼청동
오거리.한옥마을입구,126.9697373674,37.5795113176,종로구,청운효자동,서울특별시 종로구 청운효자동
평창공원지킴터입구,126.9757356724,37.6163974196,종로구,평창동,서울특별시 종로구 평창동
창경궁.고궁호텔.메이플레이스호텔,126.9973099621,37.576547748,종로구,종로1.2.3.4가동,서울특별시 종로구 종로1.2.3.4가동
광화문,126.9738307648,37.5701950496,종로구,사직동,서울특별시 종로구 사직동
종로1가,126.9804546746,37.5702649981,종로구,종로1.2.3.4가동,서울특별시 종로구 종로1.2.3.4가동
종로2가,126.9855773625,37.5700873247,종로구,종로1.2.3.4가동,서울특별시 종로구 종로1.2.3.4가동
종로3가,126.990753581,37.5704277575,종로구,종로1.2.3.4가동,서울특별시 종로구 종로1.2.3.4가동
종로3가,126.990982251,37.5702540089,종로구,종로1.2.3.4가동,서울특별시 종로구 종로1.2.3.4가동
종로4가,126.996855916,37.5705663824,종로구,종로1.2.3.4가동,서울특별시 종로구 종로1.2.3.4가동
동대문종합시장종로6가,127.0032037989,37.5709129822,종로구,종로5.6가동,서울특별시 종로구 종로5.6가동
종로도서관,126.9670811749,37.5765433371,종로구,사직동,서울특별시 종로구 사직동
경복궁역,126.9714986593,37.5760815631,종로구,사직동,서울특별시 종로구 사직동
경복궁역,126.9713268171,37.5759086408,종로구,사직동,서울특별시 종로구 사직동
안국역,126.9853059865,37.5765189441,종로구,삼청동,서울특별시 종로구 삼청동
안국역,126.9854280305,37.5764286776,종로구,종로1.2.3.4가동,서울특별시 종로구 종로1.2.3.4가동
창덕궁,126.988901037,37.5774229072,종로구,가회동,서울특별시 종로구 가회동
성대입구,126.9995811411,37.5836656381,종로구,혜화동,서울특별시 종로구 혜화동
종로사우나,126.9875872057,37.5737413187,종로구,종로1.2.3.4가동,서울특별시 종로구 종로1.2.3.4가동
엄마분식,126.9557384547,37.6012662353,종로구,부암동,서울특별시 종로구 부암동
삼청파출소,126.9812397979,37.5816827285,종로구,삼청동,서울특별시 종로구 삼청동
통인시장.종로구보건소,126.9686739966,37.5803270229,종로구,청운효자동,서울특별시 종로구 청운효자동
종로5가역,127.0000158599,37.5707777845,종로구,종로1.2.3.4가동,서울특별시 종로구 종로1.2.3.4가동
평창동산림제3초소,126.9770156594,37.6172703612,종로구,평창동,서울특별시 종로구 평창동
배화여중고,126.9678404333,37.5767653931,종로구,사직동,서울특별시 종로구 사직동
대학로입구.이화사거리,127.0025920596,37.5760857672,종로구,이화동,서울특별시 종로구 이화동
운현궁,126.9868070503,37.5752320419,종로구,종로1.2.3.4가동,서울특별시 종로구 종로1.2.3.4가동
상명대입구,126.9570082781,37.6000343037,종로구,부암동,서울특별시 종로구 부암동
삼청동주민센터,126.9820670354,37.5847005101,종로구,삼청동,서울특별시 종로구 삼청동
박노수미술관,126.9669162112,37.5810715032,종로구,청운효자동,서울특별시 종로구 청운효자동
김창열.윤명로화실,126.9783838676,37.6163425637,종로구,평창동,서울특별시 종로구 평창동
사직동주민센터,126.9689265111,37.5762630284,종로구,사직동,서울특별시 종로구 사직동
충신시장,127.0054957128,37.5750215615,종로구,종로5.6가동,서울특별시 종로구 종로5.6가동
안국역2번출구앞,126.9860701417,37.577156405,종로구,가회동,서울특별시 종로구 가회동
금융연수원,126.9817788105,37.5858665158,종로구,삼청동,서울특별시 종로구 삼청동
감람산기도원,126.9798977194,37.6159485888,종로구,평창동,서울특별시 종로구 평창동
카센터.터널앞,126.9659498257,37.5740167762,종로구,사직동,서울특별시 종로구 사직동
재동초등학교,126.9852803168,37.5787678704,종로구,가회동,서울특별시 종로구 가회동
삼청공원삼거리.옥호정터,126.981711424,37.5874176662,종로구,삼청동,서울특별시 종로구 삼청동
이화사거리,127.0021612506,37.575324436,종로구,이화동,서울특별시 종로구 이화동
연화정사,126.9795064106,37.6146506734,종로구,평창동,서울특별시 종로구 평창동
대신중고,126.9616840763,37.5724834461,종로구,교남동,서울특별시 종로구 교남동
현대사거리,126.9866292861,37.5792737665,종로구,가회동,서울특별시 종로구 가회동
교남동주민센터,126.9613244496,37.5721865287,종로구,교남동,서울특별시 종로구 교남동
부암동주민센터.무계원,126.9639626251,37.5929702925,종로구,부암동,서울특별시 종로구 부암동
형제봉입구,126.9816903604,37.6128678545,종로구,평창동,서울특별시 종로구 평창동
교남동새마을금고,126.9623511123,37.5715471715,종로구,교남동,서울특별시 종로구 교남동
창신초교,127.0155599726,37.5760028897,종로구,창신1동,서울특별시 종로구 창신1동
가회동주민센터,126.9850462575,37.5799442565,종로구,가회동,서울특별시 종로구 가회동
볼링장,126.9879587338,37.5792882137,종로구,가회동,서울특별시 종로구 가회동
부암슈퍼,126.9636761898,37.5947434744,종로구,부암동,서울특별시 종로구 부암동
지구촌교회,126.9793713925,37.6130836459,종로구,평창동,서울특별시 종로구 평창동
월암공원,126.9640608772,37.5712016733,종로구,교남동,서울특별시 종로구 교남동
숭인1동주민센터,127.0154152355,37.5774068265,종로구,숭인1동,서울특별시 종로구 숭인1동
북촌한옥마을입구.정세권활동터,126.985087441,37.5812823454,종로구,가회동,서울특별시 종로구 가회동
하림각,126.962935749,37.5976611837,종로구,부암동,서울특별시 종로구 부암동
보현빌라,126.9782676847,37.6152734185,종로구,평창동,서울특별시 종로구 평창동
스위스대사관,126.9658537057,37.5700201439,종로구,교남동,서울특별시 종로구 교남동
안국선원.삼거리,126.9851065205,37.5827441387,종로구,가회동,서울특별시 종로구 가회동
세검정교회,126.959437574,37.5994997517,종로구,부암동,서울특별시 종로구 부암동
혜화동로터리,127.001025,37.585841,종로구,혜화동,서울특별시 종로구 혜화동
김종영미술관,126.978167405,37.6132845834,종로구,평창동,서울특별시 종로구 평창동
서울시교육청,126.966867,37.569301,종로구,교남동,서울특별시 종로구 교남동
창신쌍용1단지.종로센트레빌아파트,127.0155933426,37.5803236367,종로구,숭인1동,서울특별시 종로구 숭인1동
사우디대사관,126.9851203668,37.5838643051,종로구,가회동,서울특별시 종로구 가회동
상명대입구,126.9573862743,37.5998416021,종로구,부암동,서울특별시 종로구 부암동
혜화초등학교,126.9999339318,37.5873791565,종로구,혜화동,서울특별시 종로구 혜화동
강북삼성병원,126.968377426,37.5685509192,종로구,교남동,서울특별시 종로구 교남동
청룡사.보문파크뷰자이아파트,127.0170715626,37.5798074224,종로구,숭인1동,서울특별시 종로구 숭인1동
감사원,126.9855847062,37.5863002551,종로구,가회동,서울특별시 종로구 가회동
국민생활관,126.999259493,37.5896185675,종로구,혜화동,서울특별시 종로구 혜화동
종로센트레빌후문.e편한세상보문아파트,127.0162426655,37.5819267884,성북구,보문동,서울특별시 성북구 보문동
통일부,126.9862356221,37.5875046072,종로구,가회동,서울특별시 종로구 가회동
서울국제고등학교,126.997135718,37.5890764237,종로구,혜화동,서울특별시 종로구 혜화동
성대후문.와룡공원,126.9898018201,37.5890441361,종로구,혜화동,서울특별시 종로구 혜화동
상명초등학교,126.9568039885,37.6009103208,종로구,부암동,서울특별시 종로구 부암동
새마을금고,126.996591,37.587869,종로구,혜화동,서울특별시 종로구 혜화동
경진빌라,126.9579112589,37.6018900247,종로구,부암동,서울특별시 종로구 부암동
명륜시장.성대후문,126.9952573617,37.5887411963,종로구,혜화동,서울특별시 종로구 혜화동
완성빌라,126.9576705646,37.6033409051,종로구,부암동,서울특별시 종로구 부암동
양현관,126.9937844716,37.5897776871,종로구,혜화동,서울특별시 종로구 혜화동
상명대후문,126.9574659368,37.6040725499,종로구,평창동,서울특별시 종로구 평창동
샘미용실,126.993432173,37.590265093,종로구,혜화동,서울특별시 종로구 혜화동
산정빌라,126.9575840685,37.6052849819,종로구,평창동,서울특별시 종로구 평창동
구기빌라,126.957956179,37.6061570242,종로구,평창동,서울특별시 종로구 평창동
마트앞,126.9587519429,37.606703668,종로구,평창동,서울특별시 종로구 평창동
국민은행.세검정지점,126.9608711635,37.6049105807,종로구,부암동,서울특별시 종로구 부암동
혜화역4번출구,127.0015413078,37.583472298,종로구,혜화동,서울특별시 종로구 혜화동
방송통신대앞,127.0020672577,37.578698356,종로구,이화동,서울특별시 종로구 이화동
서울대치과대학,126.9977684058,37.5773944493,종로구,이화동,서울특별시 종로구 이화동
효제초교.연동교회.김마리아활동터,127.0020640035,37.5736466069,종로구,종로5.6가동,서울특별시 종로구 종로5.6가동
성균관대학교,126.9900098022,37.5884673455,종로구,혜화동,서울특별시 종로구 혜화동
독립문역,126.9593030074,37.573216716,종로구,무악동,서울특별시 종로구 무악동
서울대치과대학,126.9978352684,37.5775507621,종로구,이화동,서울특별시 종로구 이화동
이화사거리,127.0021043976,37.5769496232,종로구,이화동,서울특별시 종로구 이화동
서울대학교병원현관.암병원현관,126.9981605421,37.5789652398,종로구,이화동,서울특별시 종로구 이화동
종각.공평유적전시관,126.9830861139,37.5715945112,종로구,종로1.2.3.4가동,서울특별시 종로구 종로1.2.3.4가동
조계사,126.9829895135,37.5738610302,종로구,종로1.2.3.4가동,서울특별시 종로구 종로1.2.3.4가동
JW메리어트동대문호텔,127.0094839606,37.5703033636,종로구,종로5.6가동,서울특별시 종로구 종로5.6가동
대학로,127.0020227893,37.5818869883,종로구,이화동,서울특별시 종로구 이화동
창경궁,126.9965211601,37.5791691849,종로구,종로1.2.3.4가동,서울특별시 종로구 종로1.2.3.4가동
창덕궁,126.9902059736,37.5774370421,종로구,종로1.2.3.4가동,서울특별시 종로구 종로1.2.3.4가동
인사동.북촌,126.9838223896,37.5758549481,종로구,삼청동,서울특별시 종로구 삼청동
경복궁.국립민속박물관,126.9798460174,37.5801955967,종로구,청운효자동,서울특별시 종로구 청운효자동
세종문화회관,126.9767655261,37.5711339781,종로구,사직동,서울특별시 종로구 사직동
통인시장,126.9713415228,37.5791206246,종로구,청운효자동,서울특별시 종로구 청운효자동
세종문화회관,126.9767311479,37.5721093364,종로구,사직동,서울특별시 종로구 사직동
종각역,126.9829140886,37.5693783276,종로구,종로1.2.3.4가동,서울특별시 종로구 종로1.2.3.4가동
인사동.탑골공원,126.988797953,37.5701446228,종로구,종로1.2.3.4가동,서울특별시 종로구 종로1.2.3.4가동
종묘.세운상가,126.9941936743,37.5703916012,종로구,종로1.2.3.4가동,서울특별시 종로구 종로1.2.3.4가동
광장시장,126.9996619273,37.5707588859,종로구,종로1.2.3.4가동,서울특별시 종로구 종로1.2.3.4가동
동묘.숭인동도깨비시장,127.0179931239,37.573572777,종로구,숭인2동,서울특별시 종로구 숭인2동
서울풍물시장,127.0232491024,37.5733420366,종로구,숭인2동,서울특별시 종로구 숭인2동
청와대,126.9737046951,37.5826838766,종로구,청운효자동,서울특별시 종로구 청운효자동
남대문세무서.서울백병원,126.9874579937,37.5649827048,중구,명동,서울특별시 중구 명동
서울백병원.국가인권위.안중근활동터,126.9878514335,37.5643504512,중구,명동,서울특별시 중구 명동
서울역버스환승센터,126.9725910246,37.5550390603,중구,회현동,서울특별시 중구 회현동
서울역버스환승센터,126.9725522061,37.5554776389,중구,회현동,서울특별시 중구 회현동
서울역버스환승센터,126.9725602947,37.555376237,중구,회현동,서울특별시 중구 회현동
서울역버스환승센터,126.9727726582,37.5554752628,중구,회현동,서울특별시 중구 회현동
서울역버스환승센터.강우규의거터,126.9727726576,37.5554664032,중구,회현동,서울특별시 중구 회현동
숭례문,126.9737882686,37.5586333183,중구,회현동,서울특별시 중구 회현동
숭례문(가상),126.9744890187,37.5597629406,중구,회현동,서울특별시 중구 회현동
서울시청,126.9806329774,37.5660640631,중구,명동,서울특별시 중구 명동
만리동고개,126.9625260855,37.5517028711,중구,중림동,서울특별시 중구 중림동
손기정체육공원입구,126.9662684319,37.5543899838,중구,중림동,서울특별시 중구 중림동
서울의료보건고등학교.서울역서부,126.9690677303,37.5561797215,중구,회현동,서울특별시 중구 회현동
서울역서부,126.9691952084,37.5563197504,중구,회현동,서울특별시 중구 회현동
서울역서부,126.969185906,37.5569643623,중구,회현동,서울특별시 중구 회현동
중림동교차로,126.969210225,37.5583873391,중구,중림동,서울특별시 중구 중림동
종근당.충정로역,126.9643899703,37.5596102082,중구,중림동,서울특별시 중구 중림동
한국경제신문사.서소문역사공원,126.9678361628,37.5604606714,중구,중림동,서울특별시 중구 중림동
한국경제신문사.서소문역사공원,126.9679822505,37.5605834918,중구,중림동,서울특별시 중구 중림동
경찰청.동북아역사재단,126.9690060167,37.5629931372,중구,소공동,서울특별시 중구 소공동
써미트호텔,127.0066272686,37.5624411151,중구,장충동,서울특별시 중구 장충동
서대문경찰서.농협은행.유관순활동터,126.9676562745,37.5648478757,중구,소공동,서울특별시 중구 소공동
염천교,126.9733638501,37.5598374617,중구,회현동,서울특별시 중구 회현동
숭례문,126.9732327954,37.5580109516,중구,회현동,서울특별시 중구 회현동
숭례문.한국일보,126.9738534689,37.5587064564,중구,회현동,서울특별시 중구 회현동
후암삼거리,126.9760729676,37.5533291272,중구,회현동,서울특별시 중구 회현동
숭례문,126.9742235154,37.5588415096,중구,회현동,서울특별시 중구 회현동
숭례문,126.9740061243,37.5585974617,중구,회현동,서울특별시 중구 회현동
숭례문,126.9735239586,37.558058134,중구,회현동,서울특별시 중구 회현동
남대문시장악세사리전문상가,126.9759991814,37.558573168,중구,회현동,서울특별시 중구 회현동
숭례문남산방향,126.9758030142,37.5585906691,중구,회현동,서울특별시 중구 회현동
남대문시장,126.9800196252,37.5613289437,중구,회현동,서울특별시 중구 회현동
북창동.남대문시장,126.9779334764,37.5610812855,중구,소공동,서울특별시 중구 소공동
시청앞,126.97648724,37.5626069098,중구,소공동,서울특별시 중구 소공동
삼성본관앞,126.9760490964,37.5620176777,중구,소공동,서울특별시 중구 소공동
시청앞,126.9763191308,37.562723356,중구,소공동,서울특별시 중구 소공동
서소문,126.9748278571,37.5633054584,중구,소공동,서울특별시 중구 소공동
서소문,126.9753580928,37.5636451423,중구,소공동,서울특별시 중구 소공동
시청.서소문청사,126.9749714141,37.5634962458,중구,소공동,서울특별시 중구 소공동
서울신문사,126.9772704866,37.5683636767,중구,명동,서울특별시 중구 명동
우리은행종로지점,126.9827971458,37.5675222611,중구,명동,서울특별시 중구 명동
롯데백화점,126.9821793435,37.5644712444,중구,소공동,서울특별시 중구 소공동
해운센터.롯데영프라자,126.9816645405,37.562858715,중구,소공동,서울특별시 중구 소공동
롯데영프라자,126.9819217706,37.5630081328,중구,명동,서울특별시 중구 명동
신세계앞,126.981632,37.560919,중구,회현동,서울특별시 중구 회현동
남대문시장.회현역,126.9800425,37.55949853,중구,회현동,서울특별시 중구 회현동
남대문시장.회현역,126.9783474622,37.5585586534,중구,회현동,서울특별시 중구 회현동
남산3호터널,126.9828003712,37.5584865568,중구,회현동,서울특별시 중구 회현동
남산3호터널.서울애니메이션센터,126.982566164,37.5595072006,중구,명동,서울특별시 중구 명동
명동입구,126.985225811,37.5607673404,중구,명동,서울특별시 중구 명동
퇴계로2가.명동역,126.984499534,37.5608324594,중구,명동,서울특별시 중구 명동
퇴계로3가.한옥마을.한국의집,126.9917309772,37.5611334758,중구,필동,서울특별시 중구 필동
퇴계로3가.한옥마을.한국의집,126.992490506,37.5609899926,중구,필동,서울특별시 중구 필동
충무로역2번출구.대한극장앞,126.9948830406,37.5613196823,중구,필동,서울특별시 중구 필동
충무로역8번출구.대한극장앞,126.9965751591,37.5618724932,중구,광희동,서울특별시 중구 광희동
초동,126.9930225205,37.5633379686,중구,을지로동,서울특별시 중구 을지로동
을지로입구.로얄호텔,126.9853753406,37.5659870189,중구,명동,서울특별시 중구 명동
을지로입구.시청입구,126.9811720525,37.5660681335,중구,명동,서울특별시 중구 명동
을지로2가.기업은행본점.서울노동청,126.9865270687,37.5661750187,중구,명동,서울특별시 중구 명동
을지로2가.파인에비뉴,126.9888222236,37.5661216045,중구,명동,서울특별시 중구 명동
을지로3가,126.990379454,37.566313373,중구,을지로동,서울특별시 중구 을지로동
을지로3가,126.9913175282,37.5662336334,중구,을지로동,서울특별시 중구 을지로동
을지로4가,126.9962218644,37.5666038467,중구,을지로동,서울특별시 중구 을지로동
을지로4가.베스트웨스턴국도,126.9968402973,37.5664971393,중구,을지로동,서울특별시 중구 을지로동
중구청앞.덕수중학교,126.9982284878,37.5647791137,중구,광희동,서울특별시 중구 광희동
을지로5가,126.9992630956,37.566755096,중구,을지로동,서울특별시 중구 을지로동
을지로5가.중부시장,127.0011069759,37.5667239207,중구,을지로동,서울특별시 중구 을지로동
방산시장.훈련원종합체육관,127.0022525478,37.5679533421,중구,을지로동,서울특별시 중구 을지로동
을지로5가.훈련원종합체육관,127.0024217692,37.5658168668,중구,을지로동,서울특별시 중구 을지로동
을지로6가.국립중앙의료원,127.0064075366,37.5661794747,중구,광희동,서울특별시 중구 광희동
광희동,127.0072941642,37.5650333972,중구,광희동,서울특별시 중구 광희동
광희동,127.0075738975,37.565083791,중구,광희동,서울특별시 중구 광희동
을지로6가.국립중앙의료원,127.0058282626,37.5664064222,중구,광희동,서울특별시 중구 광희동
동대문역사문화공원,127.0084231234,37.5673199726,중구,광희동,서울특별시 중구 광희동
동대문역사문화공원,127.0089802242,37.5676255678,중구,광희동,서울특별시 중구 광희동
충무아트센터.스포츠센터.중부소방서,127.014052208,37.5651584448,중구,신당동,서울특별시 중구 신당동
충무아트센터.스포츠센터.중부소방서,127.0147221363,37.5651214487,중구,신당동,서울특별시 중구 신당동
성동공업고등학교(무궁화회관),127.0158931315,37.5683563106,중구,신당동,서울특별시 중구 신당동
성동공업고등학교앞,127.0160142109,37.5686877388,중구,신당동,서울특별시 중구 신당동
신당역.중앙시장앞,127.0187449671,37.565685175,중구,황학동,서울특별시 중구 황학동
신당역.중앙시장앞,127.0194761669,37.565586108,중구,신당5동,서울특별시 중구 신당5동
성동고등학교,127.0220406536,37.5655113169,중구,황학동,서울특별시 중구 황학동
성동고등학교,127.022580146,37.5652869505,중구,신당5동,서울특별시 중구 신당5동
신당동떡볶이타운.중구여성플라자,127.0150595818,37.5626067262,중구,신당동,서울특별시 중구 신당동
신당동떡볶이타운.중구여성플라자,127.0150782762,37.5623511487,중구,동화동,서울특별시 중구 동화동
신당동.청구역,127.0131006907,37.5589914351,중구,청구동,서울특별시 중구 청구동
신당동.청구역,127.0130812274,37.5592387162,중구,다산동,서울특별시 중구 다산동
약수역2번출구.가온도서관,127.0111792179,37.5559696134,중구,다산동,서울특별시 중구 다산동
약수역3번출구.약수하이츠,127.0112499701,37.5557946633,중구,청구동,서울특별시 중구 청구동
약수역4번출구.금호터널입구,127.0118801361,37.5533255239,중구,약수동,서울특별시 중구 약수동
약수역5번출구.금호터널입구,127.012011171,37.5530112551,중구,약수동,서울특별시 중구 약수동
약수역8번출구.신당사회복지관,127.0099898954,37.5538519602,중구,다산동,서울특별시 중구 다산동
약수역7번출구.약수동주민센터,127.0092200691,37.5529354062,중구,약수동,서울특별시 중구 약수동
송도병원앞,127.0076564559,37.5502725934,중구,약수동,서울특별시 중구 약수동
송도병원앞,127.0075033886,37.5502186774,중구,다산동,서울특별시 중구 다산동
약수역1번출구,127.0095567214,37.5563447636,중구,다산동,서울특별시 중구 다산동
장충체육관앞,127.0077111604,37.5584027241,중구,장충동,서울특별시 중구 장충동
장충체육관앞,127.0079019871,37.5580811524,중구,장충동,서울특별시 중구 장충동
장충동.동국대입구,127.0058093741,37.560647216,중구,장충동,서울특별시 중구 장충동
장충동.동국대입구,127.0056676676,37.560656267,중구,장충동,서울특별시 중구 장충동
퇴계로6가,127.0038945728,37.5634188439,중구,광희동,서울특별시 중구 광희동
퇴계로6가,127.0032991424,37.5634318233,중구,광희동,서울특별시 중구 광희동
퇴계로5가,126.9999300049,37.5624801112,중구,필동,서울특별시 중구 필동
퇴계로5가,126.9999100507,37.5626292589,중구,광희동,서울특별시 중구 광희동
국립극장.반얀트리호텔,127.000734,37.551223,중구,장충동,서울특별시 중구 장충동
국립극장.반얀트리호텔,127.0010413652,37.5516156456,중구,장충동,서울특별시 중구 장충동
청구역,127.0146421029,37.5599362984,중구,동화동,서울특별시 중구 동화동
청구역,127.0142652073,37.5600057837,중구,청구동,서울특별시 중구 청구동
동화동,127.0183294344,37.5599151921,중구,동화동,서울특별시 중구 동화동
동화동,127.0182878175,37.5598545996,중구,청구동,서울특별시 중구 청구동
백범광장,126.9801102008,37.5556147024,중구,회현동,서울특별시 중구 회현동
남대문경찰서,126.9736347966,37.5538191493,용산구,남영동,서울특별시 용산구 남영동
남대문시장앞.이회영활동터,126.9762193,37.56037765,중구,소공동,서울특별시 중구 소공동
동대입구역.장충동,127.0054329618,37.5581192384,중구,장충동,서울특별시 중구 장충동
약수역10번출구,127.0093494526,37.5562683361,중구,다산동,서울특별시 중구 다산동
청계1가.광교,126.9836588588,37.5685867817,중구,명동,서울특별시 중구 명동
청계2가.삼일교,126.9885301722,37.5680000008,중구,명동,서울특별시 중구 명동
청계4가.배오개다리,126.9971440802,37.5686776061,중구,을지로동,서울특별시 중구 을지로동
청계5가.방산시장,127.0006385759,37.5692504249,중구,을지로동,서울특별시 중구 을지로동
청계6가.평화시장,127.0044818377,37.5694979957,중구,을지로동,서울특별시 중구 을지로동
청계7가.동평화.청평화시장,127.0138487782,37.5696262824,중구,신당동,서울특별시 중구 신당동
청계8가.영도교,127.0187470319,37.5707469945,중구,황학동,서울특별시 중구 황학동
신한은행본점,126.9757104301,37.5611650717,중구,소공동,서울특별시 중구 소공동
동대문역사문화공원,127.0091615143,37.5655208771,중구,광희동,서울특별시 중구 광희동
버티고개,127.0060181934,37.5478404399,중구,다산동,서울특별시 중구 다산동
버티고개,127.0057824106,37.5476959596,중구,약수동,서울특별시 중구 약수동
청계3가.세운교,126.993785482,37.5683611799,중구,을지로동,서울특별시 중구 을지로동
청계6가.오간수교,127.0090249711,37.5696086782,중구,광희동,서울특별시 중구 광희동
충무로역.매일경제,126.9932423252,37.5616791764,중구,필동,서울특별시 중구 필동
을지로입구역.광교,126.9826165989,37.567554377,중구,명동,서울특별시 중구 명동
신당파인힐하나유보라,127.024744093,37.5649862725,중구,신당5동,서울특별시 중구 신당5동
명동입구,126.9824465904,37.5647565696,중구,명동,서울특별시 중구 명동
남산북측순환로입구,126.998808215,37.5506954106,중구,장충동,서울특별시 중구 장충동
신당동삼성아파트.금호여중,127.0188187492,37.5585430279,중구,청구동,서울특별시 중구 청구동
신당동대우푸르지오.금호여중,127.0191522626,37.5579109841,중구,동화동,서울특별시 중구 동화동
황학동주민센터,127.0235249435,37.566859199,중구,황학동,서울특별시 중구 황학동
신당초등학교앞,127.0239587884,37.56453352,중구,신당5동,서울특별시 중구 신당5동
금호베스트빌.래미안하이베르,127.0241113943,37.561552455,중구,신당5동,서울특별시 중구 신당5동
금호베스트빌.래미안하이베르,127.024247379,37.5622285561,중구,신당5동,서울특별시 중구 신당5동
신당초등학교,127.0241889617,37.5642873288,중구,신당5동,서울특별시 중구 신당5동
서대문경찰서.농협은행.유관순활동터,126.9673852229,37.5652259249,중구,소공동,서울특별시 중구 소공동
방산종합시장,127.0020488136,37.5678111328,중구,을지로동,서울특별시 중구 을지로동
황학동롯데캐슬,127.0221630322,37.5717079986,중구,황학동,서울특별시 중구 황학동
광희문.광희동사거리,127.0086314095,37.5644774282,중구,광희동,서울특별시 중구 광희동
광희문.광희동사거리,127.0094021679,37.5644650619,중구,광희동,서울특별시 중구 광희동
황학동롯데캐슬,127.0233571961,37.5709472977,중구,황학동,서울특별시 중구 황학동
한국은행.신세계앞,126.9793091096,37.561342399,중구,소공동,서울특별시 중구 소공동
서울기동대.광희초등학교,127.0145779367,37.5679626705,중구,신당동,서울특별시 중구 신당동
동대문디자인플라자,127.0120086816,37.5678614549,중구,신당동,서울특별시 중구 신당동
서대문역사거리.농협중앙회,126.9687628909,37.5678204095,중구,소공동,서울특별시 중구 소공동
서울스퀘어앞,126.9727847001,37.5553184951,중구,회현동,서울특별시 중구 회현동
북창동.남대문시장,126.9769400853,37.5608066865,중구,소공동,서울특별시 중구 소공동
힐튼호텔,126.9766529719,37.5562038643,중구,회현동,서울특별시 중구 회현동
힐튼호텔,126.9766122299,37.5566056006,중구,회현동,서울특별시 중구 회현동
시청앞.덕수궁,126.9770031031,37.5662159552,중구,소공동,서울특별시 중구 소공동
남대문세무서.국가인권위원회,126.9876801936,37.5650798393,중구,명동,서울특별시 중구 명동
장충문화체육센터.권기옥활동터,127.0027220126,37.5601814056,중구,장충동,서울특별시 중구 장충동
남산1호터널,126.9922686083,37.5574199849,중구,필동,서울특별시 중구 필동
남산예장버스환승주차장,126.9893113416,37.5591995709,중구,필동,서울특별시 중구 필동
약수역.3.6호선,127.0123678484,37.5526461062,중구,약수동,서울특별시 중구 약수동
조선일보,126.9768839612,37.5688495917,중구,명동,서울특별시 중구 명동
시청역,126.9770214106,37.5656400098,중구,소공동,서울특별시 중구 소공동
서울역,126.9715278744,37.558239227,중구,회현동,서울특별시 중구 회현동
숭례문앞,126.9765231765,37.5627020445,중구,소공동,서울특별시 중구 소공동
프레스센터,126.9772622578,37.5673575582,중구,명동,서울특별시 중구 명동
신당역하나은행,127.0217694831,37.5654418374,중구,신당5동,서울특별시 중구 신당5동
염천교,126.9711213693,37.5598048073,중구,중림동,서울특별시 중구 중림동
중림동입구.서소문성지역사박물관,126.9692025327,37.5584769863,중구,중림동,서울특별시 중구 중림동
서울역서부,126.9692112267,37.555996543,중구,회현동,서울특별시 중구 회현동
한국경제신문사,126.9678306513,37.5608962474,중구,중림동,서울특별시 중구 중림동
응봉근린공원.금호산,127.0170284207,37.553781953,성동구,금호2.3가동,서울특별시 성동구 금호2.3가동
서울방송고등학교.남산타운아파트,127.0124077211,37.549584558,중구,약수동,서울특별시 중구 약수동
서울방송고등학교.남산타운아파트,127.0124032375,37.5495146584,중구,약수동,서울특별시 중구 약수동
중구청소년센터.남산타운2상가,127.0124253997,37.5516543692,중구,약수동,서울특별시 중구 약수동
중구청소년센터.남산타운2상가,127.0122639153,37.5517514637,중구,약수동,서울특별시 중구 약수동
약수시장.남산타운동문,127.0107281343,37.5515740477,중구,약수동,서울특별시 중구 약수동
약수지구대,127.0121564708,37.5526433008,중구,약수동,서울특별시 중구 약수동
롯데호텔,126.9803032691,37.5659173789,중구,명동,서울특별시 중구 명동
웨스틴조선호텔,126.9796504227,37.5642532899,중구,소공동,서울특별시 중구 소공동
서울광장,126.9786405564,37.5652361505,중구,소공동,서울특별시 중구 소공동
코리아나호텔,126.9769067384,37.5684273711,중구,명동,서울특별시 중구 명동
서소문KAL빌딩,126.9746731779,37.5633821416,중구,소공동,서울특별시 중구 소공동
앰배서더호텔,127.0027560103,37.5597794616,중구,장충동,서울특별시 중구 장충동
명동역.세종호텔,126.9865884923,37.5610394857,중구,명동,서울특별시 중구 명동
충무로역.호텔피제이,126.9955885946,37.561639979,중구,광희동,서울특별시 중구 광희동
남대문시장,126.9786974129,37.5610779358,중구,회현동,서울특별시 중구 회현동
이비스엠버서더호텔,126.9824148129,37.5646448407,중구,명동,서울특별시 중구 명동
서울역,126.9715525353,37.5581581951,중구,회현동,서울특별시 중구 회현동
약수역,127.0099408491,37.5537719078,중구,다산동,서울특별시 중구 다산동
밀레니엄힐튼호텔,126.9759642509,37.5554668881,중구,회현동,서울특별시 중구 회현동
서울역,126.9718190743,37.5579730816,중구,회현동,서울특별시 중구 회현동
라마다.스위트호텔,126.9721142567,37.5606331475,중구,소공동,서울특별시 중구 소공동
서울플라자호텔,126.9778987709,37.5641585332,중구,소공동,서울특별시 중구 소공동
더스프라지르서울동대문,127.0073787426,37.5645262622,중구,광희동,서울특별시 중구 광희동
동대문디자인플라자,127.0094006945,37.568146087,중구,광희동,서울특별시 중구 광희동
광화문,126.9768787042,37.5689438546,중구,명동,서울특별시 중구 명동
덕수궁,126.9770150907,37.565562981,중구,소공동,서울특별시 중구 소공동
남대문시장,126.9755942299,37.5608734661,중구,소공동,서울특별시 중구 소공동
명동,126.9856122591,37.5608008648,중구,명동,서울특별시 중구 명동
남산골한옥마을,126.9924381409,37.5609910291,중구,필동,서울특별시 중구 필동
앰버서더호텔,127.002697826,37.5604673544,중구,장충동,서울특별시 중구 장충동
신라호텔,127.0055118943,37.5582767888,중구,장충동,서울특별시 중구 장충동
동대문디자인플라자.동대문시장,127.0084314526,37.5669229028,중구,광희동,서울특별시 중구 광희동
서울애니메이션센터,126.9872913531,37.5585088732,중구,명동,서울특별시 중구 명동
남산케이블카,126.9836407189,37.5550987486,중구,명동,서울특별시 중구 명동
동대문디자인프라자,127.0091027481,37.5677765825,중구,광희동,서울특별시 중구 광희동
방산.중부시장,126.9994492519,37.566763934,중구,을지로동,서울특별시 중구 을지로동
을지로3가,126.9923356894,37.5664150716,중구,을지로동,서울특별시 중구 을지로동
을지로입구,126.9810020755,37.5660668501,중구,명동,서울특별시 중구 명동
명동입구,126.9822880993,37.5642018505,중구,명동,서울특별시 중구 명동
신당동중앙시장,127.019418724,37.565701536,중구,황학동,서울특별시 중구 황학동
남산오르미,126.983101574,37.5581862069,중구,명동,서울특별시 중구 명동
한강대교북단.LG유플러스,126.9631731011,37.5241009704,용산구,한강로동,서울특별시 용산구 한강로동
한강대교북단.LG유플러스,126.9631384285,37.5243338388,용산구,한강로동,서울특별시 용산구 한강로동
신용산역,126.9661443758,37.5272804289,용산구,한강로동,서울특별시 용산구 한강로동
신용산역,126.9666335,37.52793675,용산구,한강로동,서울특별시 용산구 한강로동
용산우체국,126.9701706148,37.5315345859,용산구,한강로동,서울특별시 용산구 한강로동
용산우체국,126.9704504046,37.5321195468,용산구,한강로동,서울특별시 용산구 한강로동
삼각지역,126.9739350361,37.5353188444,용산구,한강로동,서울특별시 용산구 한강로동
삼각지역,126.9740800298,37.5359959041,용산구,한강로동,서울특별시 용산구 한강로동
숙대입구역,126.9725584823,37.5432991184,용산구,남영동,서울특별시 용산구 남영동
숙대입구역,126.9722180094,37.5437536535,용산구,남영동,서울특별시 용산구 남영동
갈월동,126.9721833581,37.5509825934,용산구,남영동,서울특별시 용산구 남영동
갈월동,126.9716892138,37.5495341989,용산구,남영동,서울특별시 용산구 남영동
남영역,126.9719241389,37.5420204904,용산구,남영동,서울특별시 용산구 남영동
남영역,126.9716413367,37.5418621142,용산구,남영동,서울특별시 용산구 남영동
신용산역3번출구,126.9673239186,37.528756979,용산구,한강로동,서울특별시 용산구 한강로동
서울드래곤시티,126.9632606254,37.532099655,용산구,한강로동,서울특별시 용산구 한강로동
용산역3번출구.용산차고지,126.9640082045,37.5318610574,용산구,한강로동,서울특별시 용산구 한강로동
한강대교북단,126.964005685,37.5252500866,용산구,한강로동,서울특별시 용산구 한강로동
서계동,126.9692315916,37.552454129,용산구,남영동,서울특별시 용산구 남영동
서계동,126.9692934003,37.5516811252,용산구,청파동,서울특별시 용산구 청파동
청파동,126.9700368691,37.5488049673,용산구,청파동,서울특별시 용산구 청파동
청파시장,126.9699140463,37.5486827074,용산구,청파동,서울특별시 용산구 청파동
숙대입구역.청파동주민센터,126.970568404,37.545355161,용산구,청파동,서울특별시 용산구 청파동
숙대입구역.청파동주민센터,126.9704154585,37.5454324016,용산구,청파동,서울특별시 용산구 청파동
남영역,126.9708519275,37.5408688215,용산구,원효로1동,서울특별시 용산구 원효로1동
남영역,126.9707134311,37.5405700494,용산구,원효로1동,서울특별시 용산구 원효로1동
용산전자상가17동,126.9660303749,37.533761812,용산구,한강로동,서울특별시 용산구 한강로동
용산전자상가19동,126.9654657277,37.5335856251,용산구,한강로동,서울특별시 용산구 한강로동
용산전자상가10동,126.9619674523,37.5332514007,용산구,한강로동,서울특별시 용산구 한강로동
용산전자상가12동,126.9622314582,37.5331534918,용산구,한강로동,서울특별시 용산구 한강로동
용산전자상가.전자랜드,126.9585131327,37.5329333263,용산구,한강로동,서울특별시 용산구 한강로동
용산전자상가.전자랜드,126.9582512575,37.5330031498,용산구,한강로동,서울특별시 용산구 한강로동
원효대교북단,126.9559096863,37.5320226591,용산구,한강로동,서울특별시 용산구 한강로동
용산경찰서,126.9691782289,37.5405092844,용산구,원효로1동,서울특별시 용산구 원효로1동
용산경찰서,126.9689081576,37.5401154158,용산구,원효로1동,서울특별시 용산구 원효로1동
용산꿈나무종합타운.원효로우체국,126.9669229525,37.5386182916,용산구,원효로1동,서울특별시 용산구 원효로1동
용산e편한세상,126.9653046581,37.5374688748,용산구,원효로1동,서울특별시 용산구 원효로1동
남정초등학교,126.963519212,37.5364523626,용산구,원효로1동,서울특별시 용산구 원효로1동
원효로2가,126.9629760159,37.5362515275,용산구,원효로1동,서울특별시 용산구 원효로1동
원효로2가사거리,126.9609925111,37.5350497062,용산구,원효로1동,서울특별시 용산구 원효로1동
원효로3가,126.9581719895,37.5340537318,용산구,원효로2동,서울특별시 용산구 원효로2동
원효로3가,126.9582383562,37.5339387867,용산구,원효로2동,서울특별시 용산구 원효로2동
용암초등학교입구.이태원주공아파트,126.9886108777,37.5437645733,용산구,용산2가동,서울특별시 용산구 용산2가동
이태원동남산대림아파트.용산동아파트,126.9873585707,37.5397464596,용산구,이태원2동,서울특별시 용산구 이태원2동
용산한신아파트,126.987184841,37.5397877063,용산구,용산2가동,서울특별시 용산구 용산2가동
해방촌,126.9865964779,37.5377097083,용산구,용산2가동,서울특별시 용산구 용산2가동
국군재정관리단,126.9868243481,37.5371210336,용산구,이태원2동,서울특별시 용산구 이태원2동
용산구청.크라운호텔,126.9911060067,37.5302507227,용산구,이태원1동,서울특별시 용산구 이태원1동
용산구청.크라운호텔,126.9911951867,37.5296144396,용산구,용산2가동,서울특별시 용산구 용산2가동
한강중학교,126.9920733173,37.5253797715,용산구,서빙고동,서울특별시 용산구 서빙고동
한강중학교앞,126.9925856971,37.524573409,용산구,서빙고동,서울특별시 용산구 서빙고동
서빙고역1번출구,126.9894739925,37.5200510964,용산구,서빙고동,서울특별시 용산구 서빙고동
장충단로입구,127.0024196359,37.5457291258,용산구,한남동,서울특별시 용산구 한남동
남산예술원,127.0021238802,37.5443296525,용산구,한남동,서울특별시 용산구 한남동
서울중부기술교육원.블루스퀘어,127.0034716729,37.5415271504,용산구,한남동,서울특별시 용산구 한남동
서울시중부기술교육원.블루스퀘어,127.0034059345,37.5413446448,용산구,한남동,서울특별시 용산구 한남동
순천향대학병원,127.0056118536,37.5363898168,용산구,한남동,서울특별시 용산구 한남동
순천향대학병원,127.0061932055,37.535564429,용산구,한남동,서울특별시 용산구 한남동
순천향대학병원,127.0056811348,37.5358743422,용산구,한남동,서울특별시 용산구 한남동
순천향대학병원.한남오거리,127.0058961665,37.5355689385,용산구,한남동,서울특별시 용산구 한남동
한남5거리,127.009314,37.531398,용산구,한남동,서울특별시 용산구 한남동
남산도서관.용산도서관,126.9815549995,37.5522426268,용산구,후암동,서울특별시 용산구 후암동
남산도서관.용산도서관,126.9811189858,37.552148908,용산구,후암동,서울특별시 용산구 후암동
후암약수터,126.9842509509,37.5485214696,용산구,후암동,서울특별시 용산구 후암동
후암약수터,126.9842344982,37.5484196555,용산구,후암동,서울특별시 용산구 후암동
보성여중고입구,126.9858230732,37.5463568259,용산구,용산2가동,서울특별시 용산구 용산2가동
보성여중고입구,126.9856662703,37.5463419331,용산구,용산2가동,서울특별시 용산구 용산2가동
남산체육관,126.9927887049,37.542655862,용산구,이태원2동,서울특별시 용산구 이태원2동
남산체육관,126.9929199002,37.5425990553,용산구,이태원2동,서울특별시 용산구 이태원2동
하얏트호텔,126.9961894893,37.5415751283,용산구,이태원2동,서울특별시 용산구 이태원2동
하얏트호텔,126.9973173882,37.5409056881,용산구,한남동,서울특별시 용산구 한남동
용마루고개(서울자동차고등학교),126.9584547991,37.5406215836,용산구,효창동,서울특별시 용산구 효창동
용마루고개.효창파크푸르지오아파트,126.9586241544,37.5404112962,용산구,효창동,서울특별시 용산구 효창동
효창공원앞역.이봉창역사울림관,126.9620554893,37.5392554127,용산구,효창동,서울특별시 용산구 효창동
효창공원앞역.이봉창역사울림관,126.9618767496,37.5391585558,용산구,효창동,서울특별시 용산구 효창동
용산꿈나무종합타운.보건분소,126.9650057936,37.5384412687,용산구,원효로1동,서울특별시 용산구 원효로1동
용산꿈나무종합타운.보건분소,126.9646408937,37.5383978629,용산구,원효로1동,서울특별시 용산구 원효로1동
원효로제1동주민센터,126.9672279603,37.5377007341,용산구,원효로1동,서울특별시 용산구 원효로1동
전쟁기념관,126.976860052,37.5347000655,용산구,남영동,서울특별시 용산구 남영동
전쟁기념관,126.9773314896,37.5345746292,용산구,한강로동,서울특별시 용산구 한강로동
녹사평역,126.9851244526,37.5350449756,용산구,용산2가동,서울특별시 용산구 용산2가동
녹사평역,126.9852967904,37.5348749386,용산구,용산2가동,서울특별시 용산구 용산2가동
용산구청.이태원시장,126.9906040023,37.5343248755,용산구,이태원1동,서울특별시 용산구 이태원1동
용산구청.이태원시장,126.9898950419,37.5341737264,용산구,이태원1동,서울특별시 용산구 이태원1동
이태원역1번출구.해밀턴호텔,126.9930005373,37.5344685685,용산구,이태원1동,서울특별시 용산구 이태원1동
이태원역4번출구.해밀턴호텔,126.9931454958,37.534368472,용산구,이태원1동,서울특별시 용산구 이태원1동
이태원119안전센터,126.9966406357,37.5347017081,용산구,이태원1동,서울특별시 용산구 이태원1동
이태원119안전센터,126.9971891216,37.5346194955,용산구,한남동,서울특별시 용산구 한남동
한남동새마을금고,127.0003534776,37.5368261751,용산구,한남동,서울특별시 용산구 한남동
한남동주민센터,127.0004698669,37.5367812836,용산구,한남동,서울특별시 용산구 한남동
한강진역.블루스퀘어,127.0017247687,37.5407238817,용산구,한남동,서울특별시 용산구 한남동
한강진역.블루스퀘어,127.0018624718,37.540890139,용산구,한남동,서울특별시 용산구 한남동
서울역,126.9738393155,37.553669256,용산구,남영동,서울특별시 용산구 남영동
후암3거리,126.9766063593,37.5525461265,용산구,후암동,서울특별시 용산구 후암동
후암시장,126.9771087593,37.5506962687,용산구,후암동,서울특별시 용산구 후암동
후암시장,126.9774580157,37.5497317961,용산구,후암동,서울특별시 용산구 후암동
용산중고,126.9781323088,37.5469172158,용산구,후암동,서울특별시 용산구 후암동
용산중고,126.9782681879,37.5467762865,용산구,후암동,서울특별시 용산구 후암동
후암동종점,126.980983,37.546667,용산구,후암동,서울특별시 용산구 후암동
용산중고,126.9774098159,37.5457547745,용산구,남영동,서울특별시 용산구 남영동
남영동주민센터,126.9767519645,37.5457511232,용산구,후암동,서울특별시 용산구 후암동
남영동주민센터,126.9750333383,37.5454613621,용산구,남영동,서울특별시 용산구 남영동
남영우체국,126.9732419744,37.5452253628,용산구,남영동,서울특별시 용산구 남영동
남영우체국,126.9735129526,37.54530237,용산구,남영동,서울특별시 용산구 남영동
한남시범아파트,127.0124043847,37.5379802596,용산구,한남동,서울특별시 용산구 한남동
한남시범아파트,127.0126090141,37.5376996191,용산구,한남동,서울특별시 용산구 한남동
한남동,127.0084621784,37.5338901943,용산구,한남동,서울특별시 용산구 한남동
한남동,127.0086170947,37.5338612364,용산구,한남동,서울특별시 용산구 한남동
이촌동동부센트레빌,126.9661332639,37.5215323867,용산구,이촌1동,서울특별시 용산구 이촌1동
이촌동두산위브트레지움.한강대우아파트,126.9677713597,37.5214178569,용산구,이촌1동,서울특별시 용산구 이촌1동
이촌1동충신교회앞,126.9683477687,37.521275303,용산구,이촌1동,서울특별시 용산구 이촌1동
이촌동한가람아파트.이촌역,126.9718436463,37.5205709728,용산구,이촌1동,서울특별시 용산구 이촌1동
이촌동한강맨션.이촌역,126.9729005287,37.5201520027,용산구,이촌1동,서울특별시 용산구 이촌1동
신용산초등학교,126.974567284,37.5197158871,용산구,이촌1동,서울특별시 용산구 이촌1동
신용산초등학교,126.9761464371,37.5191306285,용산구,이촌1동,서울특별시 용산구 이촌1동
이촌동강촌아파트,126.9775800661,37.5187582786,용산구,이촌1동,서울특별시 용산구 이촌1동
이촌동점보아파트,126.9783905191,37.5184071679,용산구,이촌1동,서울특별시 용산구 이촌1동
이촌동현대아파트,126.9774515909,37.5187986255,용산구,이촌1동,서울특별시 용산구 이촌1동
금강병원.반도아파트,126.9811387863,37.5178158456,용산구,이촌1동,서울특별시 용산구 이촌1동
서빙고신동아아파트,126.9851957512,37.5178934253,용산구,서빙고동,서울특별시 용산구 서빙고동
서빙고신동아아파트,126.9854597842,37.5174878544,용산구,서빙고동,서울특별시 용산구 서빙고동
만리동고개,126.9629153939,37.5517605121,용산구,청파동,서울특별시 용산구 청파동
손기정체육공원,126.9663550918,37.5543234227,용산구,청파동,서울특별시 용산구 청파동
숙대입구역,126.9706844682,37.5444143137,용산구,청파동,서울특별시 용산구 청파동
남영역,126.9707703968,37.5422188451,용산구,청파동,서울특별시 용산구 청파동
숙명여대도서관앞,126.9672273815,37.5448672976,용산구,청파동,서울특별시 용산구 청파동
숙명여대도서관앞,126.9664724353,37.5449391337,용산구,청파동,서울특별시 용산구 청파동
숙명여대정문,126.9640836997,37.5450738148,용산구,청파동,서울특별시 용산구 청파동
숙명여대정문,126.964296113,37.5451984976,용산구,청파동,서울특별시 용산구 청파동
숙명여대후문.이봉창활동터,126.9632249984,37.54581797,용산구,청파동,서울특별시 용산구 청파동
효창공원후문,126.9626404367,37.5467789606,용산구,효창동,서울특별시 용산구 효창동
한겨레신문사입구,126.9591522054,37.5459388772,마포구,공덕동,서울특별시 마포구 공덕동
대한노인회,126.9577200371,37.5435884693,용산구,효창동,서울특별시 용산구 효창동
효창운동장.효창동주민센터,126.9617444983,37.5421634056,용산구,효창동,서울특별시 용산구 효창동
국민은행효창동지점,126.9621576759,37.5416230489,용산구,효창동,서울특별시 용산구 효창동
서울금양초등학교.국민은행효창동지점,126.9619527141,37.5412587549,용산구,효창동,서울특별시 용산구 효창동
효창공원역,126.9609781468,37.5388078417,용산구,용문동,서울특별시 용산구 용문동
도원삼성래미안아파트,126.9574054107,37.539722386,용산구,용문동,서울특별시 용산구 용문동
도원삼성래미안아파트,126.9572214218,37.5396448319,용산구,용문동,서울특별시 용산구 용문동
중앙하이츠빌라앞,126.9600452189,37.5380567997,용산구,용문동,서울특별시 용산구 용문동
중앙하이츠빌라앞,126.9600290066,37.5378727079,용산구,용문동,서울특별시 용산구 용문동
용문시장,126.9607348708,37.5366304221,용산구,용문동,서울특별시 용산구 용문동
용문시장,126.9612722332,37.5359466913,용산구,원효로1동,서울특별시 용산구 원효로1동
용산전자상가입구,126.9621315214,37.5345347674,용산구,원효로1동,서울특별시 용산구 원효로1동
용산전자상가입구,126.9620433894,37.5344828174,용산구,원효로1동,서울특별시 용산구 원효로1동
신용산.지하차도,126.9639418298,37.5327298626,용산구,한강로동,서울특별시 용산구 한강로동
신용산.지하차도,126.963900286,37.5326572802,용산구,한강로동,서울특별시 용산구 한강로동
신용산역,126.9676302115,37.5299861801,용산구,한강로동,서울특별시 용산구 한강로동
용산역,126.966155,37.529349,용산구,한강로동,서울특별시 용산구 한강로동
용산푸르지오써밋,126.9645186276,37.527193494,용산구,한강로동,서울특별시 용산구 한강로동
용산푸르지오써밋,126.9647216773,37.5273058466,용산구,한강로동,서울특별시 용산구 한강로동
용산역광장앞,126.9653693446,37.5283373275,용산구,한강로동,서울특별시 용산구 한강로동
용산역사박물관.용산철도고등학교,126.966064437,37.5256486255,용산구,한강로동,서울특별시 용산구 한강로동
용산역사박물관.용산철도고등학교,126.9672138843,37.5251579913,용산구,한강로동,서울특별시 용산구 한강로동
용산세무서,126.9693510585,37.5236617473,용산구,한강로동,서울특별시 용산구 한강로동
용산세무서,126.9700687673,37.5235111426,용산구,한강로동,서울특별시 용산구 한강로동
이촌역,126.9738456821,37.5225350028,용산구,한강로동,서울특별시 용산구 한강로동
이촌역,126.9739640975,37.5223178833,용산구,한강로동,서울특별시 용산구 한강로동
국립중앙박물관용산가족공원,126.9784047536,37.5210044228,용산구,서빙고동,서울특별시 용산구 서빙고동
국립중앙박물관용산가족공원,126.9797767171,37.520780854,용산구,서빙고동,서울특별시 용산구 서빙고동
서빙고역교차로,126.9901087261,37.5202604236,용산구,서빙고동,서울특별시 용산구 서빙고동
서빙고초등학교,126.9907357914,37.5211723121,용산구,서빙고동,서울특별시 용산구 서빙고동
한강중학교,126.9913903716,37.5248179784,용산구,서빙고동,서울특별시 용산구 서빙고동
금호베스트빌앞,126.9907042754,37.5226166078,용산구,서빙고동,서울특별시 용산구 서빙고동
서빙고동,126.9934167843,37.5199318412,용산구,서빙고동,서울특별시 용산구 서빙고동
서빙고동주민센터,126.9948181453,37.5202668261,용산구,서빙고동,서울특별시 용산구 서빙고동
동빙고동,126.9964859507,37.5208386315,용산구,서빙고동,서울특별시 용산구 서빙고동
동빙고동,126.9969058813,37.5211098548,용산구,서빙고동,서울특별시 용산구 서빙고동
보광신동아아파트삼성리버빌아파트,127.0021133419,37.5247026934,용산구,보광동,서울특별시 용산구 보광동
보광동신동아아파트,127.0014551457,37.5255900129,용산구,보광동,서울특별시 용산구 보광동
보광동주민센터,127.00054866,37.5264839994,용산구,보광동,서울특별시 용산구 보광동
기업은행보광동지점,126.9994034216,37.5278685322,용산구,보광동,서울특별시 용산구 보광동
기업은행보광동지점,126.9989380058,37.528209194,용산구,보광동,서울특별시 용산구 보광동
한국폴리텍1대학,126.996551125,37.5303938606,용산구,보광동,서울특별시 용산구 보광동
한국폴리텍1대학,126.996436736,37.5305511139,용산구,이태원1동,서울특별시 용산구 이태원1동
이태원역.보광동입구,126.9941437405,37.5336299133,용산구,이태원1동,서울특별시 용산구 이태원1동
이태원역.보광동입구,126.9942272969,37.5336168342,용산구,이태원1동,서울특별시 용산구 이태원1동
한남역.용산노인종합복지관,127.0067090018,37.5312244916,용산구,한남동,서울특별시 용산구 한남동
한남역.용산노인종합복지관,127.0076670568,37.5307155934,용산구,한남동,서울특별시 용산구 한남동
이촌119안전센터.성촌공원,126.9530395553,37.5301685887,용산구,이촌2동,서울특별시 용산구 이촌2동
성촌공원.포르쉐센터용산,126.9545557512,37.5301735631,용산구,한강로동,서울특별시 용산구 한강로동
성촌공원.포르쉐센터용산,126.9544433676,37.5297428608,용산구,이촌2동,서울특별시 용산구 이촌2동
이촌2동주민센터,126.9550134,37.5277168019,용산구,한강로동,서울특별시 용산구 한강로동
이촌2동주민센터,126.9547629377,37.5279691953,용산구,이촌2동,서울특별시 용산구 이촌2동
이촌2동대림아파트.새남터성지,126.9562789235,37.5261482683,용산구,이촌2동,서울특별시 용산구 이촌2동
이촌2동대림아파트.새남터성지,126.9562314358,37.5260689531,용산구,이촌2동,서울특별시 용산구 이촌2동
서부이촌동입구,126.959676039,37.5236972645,용산구,한강로동,서울특별시 용산구 한강로동
이촌2동강변아파트,126.9598438074,37.5235147022,용산구,이촌2동,서울특별시 용산구 이촌2동
원효2동산호아파트후문,126.9495515487,37.5324430889,용산구,원효로2동,서울특별시 용산구 원효로2동
청암동강변삼성아파트,126.948243747,37.5345973492,용산구,원효로2동,서울특별시 용산구 원효로2동
청암동강변삼성아파트,126.9493037945,37.5339606747,용산구,원효로2동,서울특별시 용산구 원효로2동
원효2동산호아파트,126.9505883522,37.5330803284,용산구,원효로2동,서울특별시 용산구 원효로2동
원효2동산호아파트,126.9508234736,37.5331028813,용산구,원효로2동,서울특별시 용산구 원효로2동
원효로풍전아파트,126.9535516914,37.5322407924,용산구,원효로2동,서울특별시 용산구 원효로2동
원효로풍전아파트,126.954523152,37.532255184,용산구,원효로2동,서울특별시 용산구 원효로2동
원효풍전아파트,126.9561178604,37.5327710082,용산구,원효로2동,서울특별시 용산구 원효로2동
원효2동주민센터,126.9509043881,37.5342784061,용산구,원효로2동,서울특별시 용산구 원효로2동
산천동리버힐삼성아파트,126.9511868344,37.5345074372,용산구,원효로2동,서울특별시 용산구 원효로2동
산천동,126.9539838422,37.5354201502,용산구,원효로2동,서울특별시 용산구 원효로2동
산천동,126.9538019768,37.5354852446,용산구,원효로2동,서울특별시 용산구 원효로2동
신창동세방아파트,126.9550322215,37.5357487714,용산구,원효로2동,서울특별시 용산구 원효로2동
신창동세방아파트,126.9549544645,37.5358169174,용산구,원효로2동,서울특별시 용산구 원효로2동
남이장군사당,126.9579788105,37.5367109201,용산구,원효로2동,서울특별시 용산구 원효로2동
남이장군사당,126.9582549601,37.5368659341,용산구,용문동,서울특별시 용산구 용문동
새마을금고,126.9595027769,37.5371259582,용산구,용문동,서울특별시 용산구 용문동
새마을금고,126.959391094,37.5372317978,용산구,용문동,서울특별시 용산구 용문동
순천향병원입구,127.0068304103,37.5326272551,용산구,한남동,서울특별시 용산구 한남동
남산서울타워,126.9904431246,37.5511572043,용산구,용산2가동,서울특별시 용산구 용산2가동
청심경로당,126.9504485667,37.5337439118,용산구,원효로2동,서울특별시 용산구 원효로2동
삼성테마트,126.9503601746,37.533754777,용산구,원효로2동,서울특별시 용산구 원효로2동
서빙고동금호베스트빌,126.9908234959,37.5226212728,용산구,서빙고동,서울특별시 용산구 서빙고동
한남동하이페리온,127.0056051011,37.5277984636,용산구,한남동,서울특별시 용산구 한남동
서빙고역1번출구,126.9892300874,37.5200377124,용산구,서빙고동,서울특별시 용산구 서빙고동
문배동이안아파트앞,126.9708301723,37.5388738903,용산구,원효로1동,서울특별시 용산구 원효로1동
갈월동4호선숙대입구,126.971760229,37.5462657464,용산구,남영동,서울특별시 용산구 남영동
삼각지역11번출구,126.9743619935,37.5362258304,용산구,한강로동,서울특별시 용산구 한강로동
숙대입구,126.9705403485,37.5445317488,용산구,청파동,서울특별시 용산구 청파동
원효대교북단,126.9557769341,37.5320979995,용산구,원효로2동,서울특별시 용산구 원효로2동
문배동이안아파트앞,126.9706780712,37.5382705918,용산구,원효로1동,서울특별시 용산구 원효로1동
순천향병원입구,127.0069216472,37.5326957598,용산구,한남동,서울특별시 용산구 한남동
숙명여대입구,126.9696420011,37.5448969741,용산구,청파동,서울특별시 용산구 청파동
서빙고초등학교,126.9906243951,37.5208411716,용산구,서빙고동,서울특별시 용산구 서빙고동
한강대교전망카페,126.9609739891,37.5212708255,용산구,이촌2동,서울특별시 용산구 이촌2동
한강대교전망카페,126.9612697484,37.5212988436,용산구,이촌1동,서울특별시 용산구 이촌1동
노들섬,126.9585823758,37.5173820666,용산구,이촌2동,서울특별시 용산구 이촌2동
노들섬,126.9589725478,37.51753796,용산구,이촌1동,서울특별시 용산구 이촌1동
용암초등학교.이태원2동주민센터,126.9908103337,37.5446898271,용산구,이태원2동,서울특별시 용산구 이태원2동
용암초등학교.이태원2동주민센터,126.9908134621,37.5448007517,용산구,이태원2동,서울특별시 용산구 이태원2동
효창공원삼거리.윤봉길의사등묘역,126.9638392891,37.544607527,용산구,청파동,서울특별시 용산구 청파동
서울역공항철도15번출구.국립극단,126.9689233333,37.5530776036,용산구,청파동,서울특별시 용산구 청파동
용산꿈나무종합타운,126.9671075712,37.5385816747,용산구,원효로1동,서울특별시 용산구 원효로1동
남산도서관,126.981814,37.552265,용산구,후암동,서울특별시 용산구 후암동
하얏트호텔,126.9969227122,37.5406576058,용산구,한남동,서울특별시 용산구 한남동
한신아파트,126.9866214516,37.5389708847,용산구,용산2가동,서울특별시 용산구 용산2가동
순천향병원,127.0048293104,37.5333361383,용산구,한남동,서울특별시 용산구 한남동
용암경로당입구,126.9868461791,37.5406138895,용산구,용산2가동,서울특별시 용산구 용산2가동
한남오거리,127.0066595679,37.5331804347,용산구,한남동,서울특별시 용산구 한남동
가야랑앞,126.9936038618,37.5402034249,용산구,이태원2동,서울특별시 용산구 이태원2동
용암한신아파트,126.9873671685,37.5420897018,용산구,용산2가동,서울특별시 용산구 용산2가동
효창공원후문,126.960945654,37.5471514503,용산구,효창동,서울특별시 용산구 효창동
디지텍고등학교앞,126.9916272605,37.5397999809,용산구,이태원2동,서울특별시 용산구 이태원2동
우리들가정의원,126.9877291603,37.5432457436,용산구,용산2가동,서울특별시 용산구 용산2가동
도원삼성래미안아파트101동앞,126.9563500612,37.5392401,용산구,용문동,서울특별시 용산구 용문동
성도약국,126.9895437427,37.5394683002,용산구,이태원2동,서울특별시 용산구 이태원2동
남산교회입구,126.9866233088,37.5446560012,용산구,용산2가동,서울특별시 용산구 용산2가동
신애교회,126.9584296513,37.54556232,마포구,공덕동,서울특별시 마포구 공덕동
시장,126.9885713712,37.5389020222,용산구,이태원2동,서울특별시 용산구 이태원2동
해방촌오거리,126.9851473549,37.5457300829,용산구,용산2가동,서울특별시 용산구 용산2가동
보광동주민센터,127.0000962872,37.5261630768,용산구,보광동,서울특별시 용산구 보광동
대한노인회중앙회,126.9574877685,37.5440386701,용산구,효창동,서울특별시 용산구 효창동
도원삼성래미안아파트101동앞,126.9564474895,37.5391653171,용산구,용문동,서울특별시 용산구 용문동
신흥교회앞,126.9833867831,37.5447410027,용산구,용산2가동,서울특별시 용산구 용산2가동
군인아파트,126.9962002453,37.5260735381,용산구,서빙고동,서울특별시 용산구 서빙고동
원효사.백범김구기념관,126.9585458452,37.5432399425,용산구,효창동,서울특별시 용산구 효창동
녹사평역,126.9857296538,37.5350155824,용산구,용산2가동,서울특별시 용산구 용산2가동
큰빛의집앞,126.9819999319,37.5445513542,용산구,용산2가동,서울특별시 용산구 용산2가동
몬드리안서울이태원,126.9925790526,37.5285022515,용산구,서빙고동,서울특별시 용산구 서빙고동
도원삼성래미안아파트,126.9575659437,37.5396696065,용산구,용문동,서울특별시 용산구 용문동
후암동종점,126.9813373461,37.5466464611,용산구,후암동,서울특별시 용산구 후암동
크라운호텔,126.9913141959,37.5303303391,용산구,이태원1동,서울특별시 용산구 이태원1동
용산고등학교,126.9795096681,37.5461343744,용산구,후암동,서울특별시 용산구 후암동
외빈차고,126.9921459605,37.5318016746,용산구,이태원1동,서울특별시 용산구 이태원1동
효창공원앞역.이봉창역사울림관,126.9613736409,37.5396841563,용산구,효창동,서울특별시 용산구 효창동
갈월동사회복지회관,126.974085158,37.5453902841,용산구,남영동,서울특별시 용산구 남영동
청화아파트,126.9951121073,37.5313859227,용산구,이태원1동,서울특별시 용산구 이태원1동
동작대로(가상),126.9829604876,37.5159524906,용산구,이촌1동,서울특별시 용산구 이촌1동
용산경찰서,126.9698198694,37.5410119822,용산구,원효로1동,서울특별시 용산구 원효로1동
숙대역7번출구,126.9722973608,37.5434564426,용산구,남영동,서울특별시 용산구 남영동
보광동삼거리,126.9967856726,37.5307297333,용산구,보광동,서울특별시 용산구 보광동
중앙하이츠빌라,126.9595744406,37.538607146,용산구,용문동,서울특별시 용산구 용문동
원효우체국,126.9673098706,37.5389560037,용산구,원효로1동,서울특별시 용산구 원효로1동
보광초등학교,126.9967687999,37.5313614551,용산구,보광동,서울특별시 용산구 보광동
용문동시장.새마을금고,126.9596569392,37.5373550817,용산구,용문동,서울특별시 용산구 용문동
수미용실,126.9984051285,37.5313833576,용산구,보광동,서울특별시 용산구 보광동
용문동주민센터,126.9591457064,37.538158151,용산구,용문동,서울특별시 용산구 용문동
문배어린이공원,126.9697268353,37.5369377043,용산구,원효로1동,서울특별시 용산구 원효로1동
문배어린이공원,126.9695751492,37.5371134019,용산구,원효로1동,서울특별시 용산구 원효로1동
영동김밥,127.0007817214,37.5310543053,용산구,보광동,서울특별시 용산구 보광동
한강대교(가상),126.9607230956,37.5218954019,용산구,이촌2동,서울특별시 용산구 이촌2동
도깨비시장,127.0022891801,37.530901407,용산구,한남동,서울특별시 용산구 한남동
리버힐빌라앞,127.0009278324,37.5317618933,용산구,한남동,서울특별시 용산구 한남동
신용산역,126.967522827,37.5299850538,용산구,한강로동,서울특별시 용산구 한강로동
보광교회,126.9992242619,37.5323225796,용산구,한남동,서울특별시 용산구 한남동
용산우체국,126.9701255766,37.5314865893,용산구,한강로동,서울특별시 용산구 한강로동
숙대역5번출구,126.9723674305,37.5440139529,용산구,남영동,서울특별시 용산구 남영동
이슬람사원,126.9980055942,37.5330025564,용산구,한남동,서울특별시 용산구 한남동
삼각지역,126.9731605785,37.5345676619,용산구,한강로동,서울특별시 용산구 한강로동
갈월동,126.9719757555,37.5463209655,용산구,남영동,서울특별시 용산구 남영동
보광초등학교후문앞,126.9957071241,37.5330564474,용산구,이태원1동,서울특별시 용산구 이태원1동
반포대교(가상),126.9939752402,37.5189331613,용산구,서빙고동,서울특별시 용산구 서빙고동
동자경로당,126.9741845682,37.5503251824,용산구,남영동,서울특별시 용산구 남영동
이태원역앞,126.9956631521,37.5341799676,용산구,이태원1동,서울특별시 용산구 이태원1동
녹사평역.용산구청,126.9869687613,37.535119338,용산구,이태원2동,서울특별시 용산구 이태원2동
후암시장,126.9768033168,37.5500762028,용산구,후암동,서울특별시 용산구 후암동
후암동주민센터앞,126.9777347751,37.5483694857,용산구,후암동,서울특별시 용산구 후암동
제일기획,126.998342613,37.5349916274,용산구,한남동,서울특별시 용산구 한남동
대성교회,126.988417666,37.5387551431,용산구,이태원2동,서울특별시 용산구 이태원2동
용산고,126.9789374575,37.5459803725,용산구,용산2가동,서울특별시 용산구 용산2가동
성도약국,126.989403159,37.5393101122,용산구,이태원2동,서울특별시 용산구 이태원2동
후암동종점,126.9813856281,37.5465524299,용산구,후암동,서울특별시 용산구 후암동
디지텍고등학교앞,126.991800907,37.5397807393,용산구,이태원2동,서울특별시 용산구 이태원2동
큰빛의집앞,126.9819393257,37.5445366691,용산구,용산2가동,서울특별시 용산구 용산2가동
가야랑앞,126.9937376463,37.5401462734,용산구,이태원2동,서울특별시 용산구 이태원2동
신흥교회앞,126.9833845607,37.5446901279,용산구,용산2가동,서울특별시 용산구 용산2가동
해방촌오거리,126.9854176195,37.5457566855,용산구,용산2가동,서울특별시 용산구 용산2가동
남산교회입구,126.9866579439,37.5445662954,용산구,용산2가동,서울특별시 용산구 용산2가동
우리들가정의원,126.9876906655,37.5432354973,용산구,용산2가동,서울특별시 용산구 용산2가동
용암한신아파트,126.9874192515,37.5423870324,용산구,용산2가동,서울특별시 용산구 용산2가동
용암경로당입구,126.9869921147,37.5410908927,용산구,용산2가동,서울특별시 용산구 용산2가동
한신아파트,126.9865879122,37.5389926282,용산구,용산2가동,서울특별시 용산구 용산2가동
갑을빌딩,126.9718891468,37.5490968333,용산구,남영동,서울특별시 용산구 남영동
리버힐삼성아파트후문,126.9487695164,37.5349772037,용산구,원효로2동,서울특별시 용산구 원효로2동
만리시장입구,126.9630254722,37.5515697975,용산구,청파동,서울특별시 용산구 청파동
배문중고등학교,126.9635579186,37.5503803084,용산구,청파동,서울특별시 용산구 청파동
청파초등학교,126.9633338685,37.5485841658,용산구,청파동,서울특별시 용산구 청파동
동부이촌동,126.9727094377,37.5202121212,용산구,이촌1동,서울특별시 용산구 이촌1동
강촌APT,126.9759809039,37.5191826472,용산구,이촌1동,서울특별시 용산구 이촌1동
그랜드하얏트호텔,126.9973661661,37.5398145496,용산구,한남동,서울특별시 용산구 한남동
청파초등학교,126.963423399,37.5484711703,용산구,청파동,서울특별시 용산구 청파동
청암자이아파트,126.9465174884,37.5343626071,용산구,원효로2동,서울특별시 용산구 원효로2동
배문중고교,126.9636504783,37.5503884182,용산구,청파동,서울특별시 용산구 청파동
만리시장입구,126.963147466,37.5517758134,용산구,청파동,서울특별시 용산구 청파동
청암자이아파트,126.9487319225,37.5348920915,용산구,원효로2동,서울특별시 용산구 원효로2동
신동아APT,126.9853564437,37.5178034076,용산구,서빙고동,서울특별시 용산구 서빙고동
신동아APT,126.9853045343,37.5178962352,용산구,서빙고동,서울특별시 용산구 서빙고동
강촌APT,126.9772858258,37.5188525599,용산구,이촌1동,서울특별시 용산구 이촌1동
동부이촌동,126.9717762164,37.5205911689,용산구,이촌1동,서울특별시 용산구 이촌1동
이촌동두산위브트레지움,126.9660012496,37.521546034,용산구,이촌1동,서울특별시 용산구 이촌1동
이촌동두산위브트레지움,126.9675568449,37.5214437386,용산구,이촌1동,서울특별시 용산구 이촌1동
이촌현대아파트.금강병원,126.9810567458,37.5178236538,용산구,이촌1동,서울특별시 용산구 이촌1동
이촌현대아파트.금강병원,126.9808482325,37.5179241429,용산구,이촌1동,서울특별시 용산구 이촌1동
한남역,127.0067088217,37.5312069658,용산구,한남동,서울특별시 용산구 한남동
도원삼성래미안아파트단지내,126.9554209614,37.5381768261,용산구,용문동,서울특별시 용산구 용문동
한남동주민센터,127.0005282864,37.5342192493,용산구,한남동,서울특별시 용산구 한남동
용산CJ나인파크,126.9694163384,37.5357774599,용산구,원효로1동,서울특별시 용산구 원효로1동
용산e편한세상,126.9672464113,37.5343402205,용산구,원효로1동,서울특별시 용산구 원효로1동
이집트대사관.한남더힐아파트,127.0115817262,37.5361614285,용산구,한남동,서울특별시 용산구 한남동
이집트대사관.한남더힐아파트,127.0114905774,37.5362201665,용산구,한남동,서울특별시 용산구 한남동
한남역,127.0076149791,37.5306436496,용산구,한남동,서울특별시 용산구 한남동
한남동,127.0087980935,37.5339415871,용산구,한남동,서울특별시 용산구 한남동
한남동,127.0085776879,37.533947832,용산구,한남동,서울특별시 용산구 한남동
필리핀대사관,126.99510145,37.5406864577,용산구,이태원2동,서울특별시 용산구 이태원2동
필리핀대사관,126.9951308079,37.5406181154,용산구,이태원2동,서울특별시 용산구 이태원2동
전쟁기념관,126.9736080694,37.5384215867,용산구,한강로동,서울특별시 용산구 한강로동
용산역,126.966155,37.529349,용산구,한강로동,서울특별시 용산구 한강로동
국립중앙박물관,126.9785962412,37.5209467378,용산구,서빙고동,서울특별시 용산구 서빙고동
이태원,126.9904440058,37.5343143296,용산구,이태원1동,서울특별시 용산구 이태원1동
남산서울타워,126.990902119,37.5510075636,중구,필동,서울특별시 중구 필동
하얏트호텔,126.9972295733,37.5409302803,용산구,한남동,서울특별시 용산구 한남동
힐튼호텔,126.9772742759,37.5548324163,용산구,후암동,서울특별시 용산구 후암동
남산도서관,126.981536883,37.5521864771,용산구,후암동,서울특별시 용산구 후암동
답십리역사거리,127.0543685469,37.5654258929,성동구,용답동,서울특별시 성동구 용답동
청년회의소.서울새활용플라자,127.0604786789,37.5619517316,성동구,용답동,서울특별시 성동구 용답동
장한평역,127.0660976191,37.5611308563,성동구,용답동,서울특별시 성동구 용답동
상왕십리역,127.0292604088,37.5642788968,성동구,왕십리2동,서울특별시 성동구 왕십리2동
상왕십리역,127.0286415903,37.564608607,성동구,왕십리도선동,서울특별시 성동구 왕십리도선동
왕십리센트라스아파트,127.0250356573,37.5650994856,중구,신당5동,서울특별시 중구 신당5동
왕십리교회,127.0236773971,37.5663841634,성동구,왕십리도선동,서울특별시 성동구 왕십리도선동
뉴타운아파트,127.0268404673,37.5648728003,성동구,왕십리2동,서울특별시 성동구 왕십리2동
청계벽산아파트.텐즈힐아파트,127.0303482315,37.5687285766,성동구,왕십리도선동,서울특별시 성동구 왕십리도선동
청계벽산아파트.텐즈힐아파트,127.0301650627,37.5681608993,성동구,왕십리도선동,서울특별시 성동구 왕십리도선동
왕십리도선동주민센터,127.0243199035,37.5676023346,성동구,왕십리도선동,서울특별시 성동구 왕십리도선동
왕십리2동주민센터,127.0333250078,37.5625197902,성동구,왕십리2동,서울특별시 성동구 왕십리2동
코스모타워.서울신용보증재단성동지점,127.0328371272,37.5628926499,성동구,왕십리도선동,서울특별시 성동구 왕십리도선동
성동구청,127.0360655165,37.5633245808,성동구,왕십리도선동,서울특별시 성동구 왕십리도선동
상왕십리역,127.0301731867,37.56487246,성동구,왕십리도선동,서울특별시 성동구 왕십리도선동
상왕십리역.센트라스아파트,127.0300159401,37.5654503432,성동구,왕십리도선동,서울특별시 성동구 왕십리도선동
마장동주민센터,127.0446047353,37.5672933147,성동구,마장동,서울특별시 성동구 마장동
마장역,127.0422672786,37.5656174819,성동구,마장동,서울특별시 성동구 마장동
성동노인복지관,127.0416605799,37.5649377638,성동구,마장동,서울특별시 성동구 마장동
마장축산물시장,127.0376168033,37.5696968161,성동구,마장동,서울특별시 성동구 마장동
마장축산물시장,127.0376120366,37.5702417373,성동구,마장동,서울특별시 성동구 마장동
도선사거리,127.0368345507,37.5668369858,성동구,마장동,서울특별시 성동구 마장동
도선사거리,127.0366528058,37.5667469532,성동구,마장동,서울특별시 성동구 마장동
마장동금호아파트,127.0417930002,37.5630713327,성동구,마장동,서울특별시 성동구 마장동
마장동금호아파트,127.0416181578,37.5621529591,성동구,마장동,서울특별시 성동구 마장동
한양대부속고등학교,127.0414634355,37.5611283816,성동구,사근동,서울특별시 성동구 사근동
한양대부속고등학교,127.0412367478,37.5603793262,성동구,사근동,서울특별시 성동구 사근동
한양대앞.한양시장,127.0410078788,37.5585803422,성동구,사근동,서울특별시 성동구 사근동
한양대앞,127.0408669941,37.558701363,성동구,사근동,서울특별시 성동구 사근동
한양대정문,127.0432024442,37.556394762,성동구,사근동,서울특별시 성동구 사근동
한양대정문앞,127.0432169227,37.5567395124,성동구,사근동,서울특별시 성동구 사근동
무학여고앞,127.0340738299,37.55799831,성동구,행당1동,서울특별시 성동구 행당1동
무학여고,127.0339167551,37.5578977476,성동구,행당2동,서울특별시 성동구 행당2동
왕십리역,127.0362690739,37.5599883525,성동구,행당1동,서울특별시 성동구 행당1동
왕십리역,127.036192993,37.5602982533,성동구,행당1동,서울특별시 성동구 행당1동
왕십리역,127.0349010174,37.5607697107,성동구,행당1동,서울특별시 성동구 행당1동
행당1동주민센터.성동소방서,127.0386828233,37.5582396303,성동구,행당1동,서울특별시 성동구 행당1동
서울숲삼부아파트,127.0379175615,37.5586832188,성동구,행당1동,서울특별시 성동구 행당1동
응봉동주민센터,127.0333491027,37.5534902086,성동구,응봉동,서울특별시 성동구 응봉동
응봉동주민센터,127.0334499123,37.5537544184,성동구,응봉동,서울특별시 성동구 응봉동
응봉사거리,127.034293592,37.5552836348,성동구,행당1동,서울특별시 성동구 행당1동
응봉동현대아파트,127.0303380712,37.549736141,성동구,응봉동,서울특별시 성동구 응봉동
응봉동현대아파트,127.0309485434,37.5501638775,성동구,응봉동,서울특별시 성동구 응봉동
대현산배수지공원입구,127.0199630919,37.5562598656,성동구,금호2.3가동,서울특별시 성동구 금호2.3가동
신금호역,127.0200362207,37.5556045462,성동구,금호1가동,서울특별시 성동구 금호1가동
신금호역,127.0199239739,37.5552233173,성동구,금호2.3가동,서울특별시 성동구 금호2.3가동
금호고등학교,127.0224946889,37.5533200953,성동구,금호1가동,서울특별시 성동구 금호1가동
금호고등학교.금호자이1차아파트입구,127.0229499036,37.5531410661,성동구,금호2.3가동,서울특별시 성동구 금호2.3가동
금호동벽산아파트,127.0255907247,37.5511501694,성동구,금호2.3가동,서울특별시 성동구 금호2.3가동
래미안하이리버아파트,127.0254538185,37.5514625892,성동구,금호2.3가동,서울특별시 성동구 금호2.3가동
금호사거리,127.0259507076,37.5488899558,성동구,금호1가동,서울특별시 성동구 금호1가동
금호사거리,127.0259707085,37.5494646066,성동구,금호2.3가동,서울특별시 성동구 금호2.3가동
금남시장앞.백범학원터,127.0218845788,37.5482564487,성동구,금호4가동,서울특별시 성동구 금호4가동
금남시장앞.백범학원터,127.022486371,37.5482740348,성동구,금호2.3가동,서울특별시 성동구 금호2.3가동
금호역,127.0160786192,37.5478314042,성동구,금호4가동,서울특별시 성동구 금호4가동
금호역,127.015563225,37.5485438473,성동구,금호2.3가동,서울특별시 성동구 금호2.3가동
금옥초등학교앞,127.0197949245,37.5470883224,성동구,금호4가동,서울특별시 성동구 금호4가동
금옥초등학교앞,127.0183627294,37.5462809251,성동구,금호4가동,서울특별시 성동구 금호4가동
힐스테이트서울숲리버아파트,127.0270182465,37.547996876,성동구,금호4가동,서울특별시 성동구 금호4가동
삼성래미안아파트앞,127.0275409224,37.5483128416,성동구,금호1가동,서울특별시 성동구 금호1가동
옥수삼성아파트.래미안옥수리버젠,127.0147632465,37.5437549997,성동구,옥수동,서울특별시 성동구 옥수동
옥수삼성아파트.래미안옥수리버젠,127.0146506663,37.5438106855,성동구,옥수동,서울특별시 성동구 옥수동
미타사입구,127.0167559317,37.5449301158,성동구,옥수동,서울특별시 성동구 옥수동
래미안옥수리버젠.옥수중앙교회,127.0147718498,37.5458558929,성동구,옥수동,서울특별시 성동구 옥수동
래미안옥수리버젠.옥수중앙교회,127.0147123534,37.5457941216,성동구,옥수동,서울특별시 성동구 옥수동
옥수파크힐스아파트앞,127.0129469982,37.5471840818,성동구,옥수동,서울특별시 성동구 옥수동
옥수파크힐스아파트앞,127.0129300433,37.5470715026,성동구,옥수동,서울특별시 성동구 옥수동
옥수동종점,127.0125014894,37.5492606999,성동구,옥수동,서울특별시 성동구 옥수동
옥정중학교입구,127.011209985,37.5408932861,성동구,옥수동,서울특별시 성동구 옥수동
옥정중학교입구,127.0110964302,37.5408882697,성동구,옥수동,서울특별시 성동구 옥수동
성수1가1동새마을금고,127.0497141791,37.5381555726,성동구,성수1가1동,서울특별시 성동구 성수1가1동
성수1가새마을금고,127.0497796401,37.5381706702,성동구,성수1가1동,서울특별시 성동구 성수1가1동
천주교성수동성당앞,127.0464092101,37.5393354499,성동구,성수1가1동,서울특별시 성동구 성수1가1동
천주교성수동성당앞,127.046074978,37.5393073795,성동구,성수1가1동,서울특별시 성동구 성수1가1동
뚝도아리수정수센터수도박물관,127.0440738817,37.5411612012,성동구,성수1가1동,서울특별시 성동구 성수1가1동
뚝도아리수정수센터수도박물관,127.0440138825,37.5413462809,성동구,성수1가1동,서울특별시 성동구 성수1가1동
서울숲,127.0445891567,37.542950541,성동구,성수1가1동,서울특별시 성동구 성수1가1동
서울숲,127.044565061,37.5432965241,성동구,성수1가1동,서울특별시 성동구 성수1가1동
성동구민종합체육센터,127.0448132643,37.5460664938,성동구,성수1가1동,서울특별시 성동구 성수1가1동
성동구민종합체육센터,127.0446530159,37.5463914717,성동구,성수1가2동,서울특별시 성동구 성수1가2동
성수공고앞,127.0505144836,37.5399358052,성동구,성수1가1동,서울특별시 성동구 성수1가1동
성수공고앞,127.0508973344,37.5399409175,성동구,성수2가1동,서울특별시 성동구 성수2가1동
경일초등학교입구,127.0462035112,37.5411301017,성동구,성수1가1동,서울특별시 성동구 성수1가1동
경일초등학교입구,127.0460395238,37.5412858485,성동구,성수1가1동,서울특별시 성동구 성수1가1동
성동교남단,127.04426264,37.5500817412,성동구,성수1가2동,서울특별시 성동구 성수1가2동
성동교남단,127.0440636284,37.5505168036,성동구,성수1가2동,서울특별시 성동구 성수1가2동
상원,127.0459675525,37.5514957166,성동구,성수1가2동,서울특별시 성동구 성수1가2동
상원,127.0468309064,37.5516519027,성동구,성수1가2동,서울특별시 성동구 성수1가2동
영동대교북단,127.061105,37.537191,성동구,성수2가1동,서울특별시 성동구 성수2가1동
경수중학교,127.0624850845,37.5396787383,성동구,성수2가1동,서울특별시 성동구 성수2가1동
성수119안전센터,127.0601724098,37.5374377213,성동구,성수2가1동,서울특별시 성동구 성수2가1동
성수119안전센터,127.0606711181,37.5374270398,성동구,성수2가1동,서울특별시 성동구 성수2가1동
경수중학교,127.0570521397,37.5382615695,성동구,성수2가1동,서울특별시 성동구 성수2가1동
경수중학교,127.0573079706,37.538309927,성동구,성수2가1동,서울특별시 성동구 성수2가1동
뚝도시장,127.0554404401,37.5386845169,성동구,성수2가1동,서울특별시 성동구 성수2가1동
뚝도시장,127.0557101142,37.5387297236,성동구,성수2가1동,서울특별시 성동구 성수2가1동
성원중성수동이마트앞,127.0534663288,37.5391914006,성동구,성수2가1동,서울특별시 성동구 성수2가1동
성원중성수동이마트앞,127.0534348845,37.5393083838,성동구,성수2가1동,서울특별시 성동구 성수2가1동
서울숲지구대앞,127.0520952346,37.5378878717,성동구,성수2가1동,서울특별시 성동구 성수2가1동
서울숲지구대앞,127.0522831491,37.5378861897,성동구,성수2가1동,서울특별시 성동구 성수2가1동
뚝도시장구길,127.0552622037,37.5372197899,성동구,성수2가1동,서울특별시 성동구 성수2가1동
뚝도시장구길,127.054875241,37.5374499524,성동구,성수2가1동,서울특별시 성동구 성수2가1동
성수동진주타운,127.0575794656,37.5365610333,성동구,성수2가1동,서울특별시 성동구 성수2가1동
성수동진주타운,127.0576013113,37.5365905705,성동구,성수2가1동,서울특별시 성동구 성수2가1동
영동대교,127.060353221,37.5363167057,성동구,성수2가1동,서울특별시 성동구 성수2가1동
영동대교,127.0603460678,37.5363497607,성동구,성수2가1동,서울특별시 성동구 성수2가1동
화양사거리,127.0666252338,37.5469829787,성동구,성수2가3동,서울특별시 성동구 성수2가3동
성수사거리.성수초등학교,127.0642979313,37.5428770679,성동구,성수2가3동,서울특별시 성동구 성수2가3동
서울효사랑병원,127.0634967603,37.5414753319,성동구,성수2가3동,서울특별시 성동구 성수2가3동
성수2가3동주민센터,127.0555516008,37.5495619958,성동구,성수2가3동,서울특별시 성동구 성수2가3동
제인병원,127.0569040503,37.5492023116,성동구,송정동,서울특별시 성동구 송정동
성동세무서앞,127.0624212567,37.548046712,성동구,성수2가3동,서울특별시 성동구 성수2가3동
성동세무서,127.0643422865,37.5481716467,성동구,송정동,서울특별시 성동구 송정동
송정동서울숲아이파크,127.0694151294,37.5519275339,성동구,송정동,서울특별시 성동구 송정동
송정동건영아파트,127.0713144844,37.5553341818,성동구,송정동,서울특별시 성동구 송정동
군자교남단,127.0725446438,37.5574896497,성동구,송정동,서울특별시 성동구 송정동
신답역,127.0476788664,37.5702566337,성동구,용답동,서울특별시 성동구 용답동
용답동.로데오거리.답십리역,127.0538687746,37.5657915799,성동구,용답동,서울특별시 성동구 용답동
서울교통공사.서울새활용플라자,127.0569493706,37.562123423,성동구,용답동,서울특별시 성동구 용답동
뚝섬서울숲,127.0364680909,37.5446348753,성동구,성수1가1동,서울특별시 성동구 성수1가1동
뚝섬서울숲,127.0363844783,37.5455504299,성동구,성수1가1동,서울특별시 성동구 성수1가1동
사근동하이츠아파트앞,127.0487170256,37.5611934034,성동구,사근동,서울특별시 성동구 사근동
사근동하이츠아파트앞,127.0486973833,37.5612879093,성동구,사근동,서울특별시 성동구 사근동
사근동주민센터,127.0458241854,37.5608599336,성동구,사근동,서울특별시 성동구 사근동
사근동주민센터,127.0459225024,37.5609586269,성동구,사근동,서울특별시 성동구 사근동
사근고개,127.04450591,37.5611368435,성동구,사근동,서울특별시 성동구 사근동
사근고개,127.0445147624,37.5612322031,성동구,사근동,서울특별시 성동구 사근동
한양지구대,127.0419417017,37.5601238791,성동구,사근동,서울특별시 성동구 사근동
한양지구대,127.0419375722,37.5602235926,성동구,사근동,서울특별시 성동구 사근동
사근동벽산아파트,127.0500077758,37.5602137386,성동구,사근동,서울특별시 성동구 사근동
뚝섬역8번출구,127.0461421672,37.5475022007,성동구,성수1가2동,서울특별시 성동구 성수1가2동
뚝섬역2번출구,127.0467806257,37.547439215,성동구,성수1가2동,서울특별시 성동구 성수1가2동
뚝섬역5번출구,127.049045499,37.5465417688,성동구,성수1가2동,서울특별시 성동구 성수1가2동
뚝섬역4번출구,127.0493085639,37.5465984235,성동구,성수1가2동,서울특별시 성동구 성수1가2동
성수역1번출구,127.0535806794,37.545322869,성동구,성수2가3동,서울특별시 성동구 성수2가3동
성수동SK아파트형공장앞,127.0502729767,37.5459167376,성동구,성수2가3동,서울특별시 성동구 성수2가3동
성수동SK아파트형공장앞,127.0501055291,37.5457510836,성동구,성수1가2동,서울특별시 성동구 성수1가2동
경동초등학교입구,127.0494067937,37.5435451069,성동구,성수1가1동,서울특별시 성동구 성수1가1동
경동초등학교입구,127.0492610302,37.5433816841,성동구,성수1가1동,서울특별시 성동구 성수1가1동
경일초등학교앞,127.0481762794,37.5408143063,성동구,성수1가1동,서울특별시 성동구 성수1가1동
경일초등학교앞,127.0482261926,37.5410724861,성동구,성수1가1동,서울특별시 성동구 성수1가1동
한양여대앞,127.0506440593,37.5588957923,성동구,사근동,서울특별시 성동구 사근동
도선고등학교.꽃재교회,127.0277620046,37.5670168554,성동구,왕십리도선동,서울특별시 성동구 왕십리도선동
성수역4번출구,127.0550618752,37.5447396409,성동구,성수2가3동,서울특별시 성동구 성수2가3동
리버하우스,127.0510369069,37.5509926093,성동구,성수1가2동,서울특별시 성동구 성수1가2동
리버하우스,127.0506808441,37.5512007504,성동구,성수1가2동,서울특별시 성동구 성수1가2동
성수사거리,127.0624635028,37.5425224709,성동구,성수2가3동,서울특별시 성동구 성수2가3동
성수사거리,127.0624916819,37.5426626838,성동구,성수2가3동,서울특별시 성동구 성수2가3동
성동제일새마을금고,127.0473308993,37.5607789439,성동구,사근동,서울특별시 성동구 사근동
성동제일새마을금고,127.0473040688,37.5608758722,성동구,사근동,서울특별시 성동구 사근동
청계9가.텐즈힐2단지 정문앞,127.0254695345,37.5709089902,동대문구,용신동,서울특별시 동대문구 용신동
뚝섬서울숲,127.0375331844,37.5435340316,성동구,성수1가1동,서울특별시 성동구 성수1가1동
뚝섬서울숲남문,127.0426801666,37.5422246513,성동구,성수1가1동,서울특별시 성동구 성수1가1동
뚝섬서울숲남문,127.0430018135,37.5420435563,성동구,성수1가1동,서울특별시 성동구 성수1가1동
용답휴식공원,127.0481116291,37.5693518923,성동구,용답동,서울특별시 성동구 용답동
용답휴식공원,127.0480433399,37.5694469182,성동구,용답동,서울특별시 성동구 용답동
성수2가3동주민센터,127.0546222464,37.5500435656,성동구,성수2가3동,서울특별시 성동구 성수2가3동
극동그린아파트앞,127.0112950652,37.5417935155,성동구,옥수동,서울특별시 성동구 옥수동
마장역,127.0430439951,37.5663047477,성동구,마장동,서울특별시 성동구 마장동
행당신동아.행당푸르지오아파트,127.0340537629,37.5561425308,성동구,행당2동,서울특별시 성동구 행당2동
숭신초등학교,127.0280043343,37.567121622,성동구,왕십리도선동,서울특별시 성동구 왕십리도선동
극동아파트,127.0241801618,37.5580239329,성동구,왕십리2동,서울특별시 성동구 왕십리2동
풍림아파트,127.0237807256,37.558940493,성동구,왕십리2동,서울특별시 성동구 왕십리2동
벽산아파트,127.0256704472,37.5556998636,성동구,행당2동,서울특별시 성동구 행당2동
대림아파트,127.0248573626,37.5565737945,성동구,행당2동,서울특별시 성동구 행당2동
행당역,127.0289887375,37.5571464818,성동구,행당2동,서울특별시 성동구 행당2동
행당역,127.0287642079,37.557079599,성동구,행당2동,서울특별시 성동구 행당2동
무학여고,127.0330304026,37.55834751,성동구,행당1동,서울특별시 성동구 행당1동
극동그린아파트,127.0117960625,37.5421419486,성동구,옥수동,서울특별시 성동구 옥수동
성수동차고지,127.0556449033,37.5362863866,성동구,성수2가1동,서울특별시 성동구 성수2가1동
제민약국,127.0586294791,37.5364822634,성동구,성수2가1동,서울특별시 성동구 성수2가1동
왕십리자이.신당현대아파트,127.023752,37.560478,성동구,왕십리2동,서울특별시 성동구 왕십리2동
왕십리자이.신당현대아파트,127.0238550903,37.5608158782,성동구,왕십리2동,서울특별시 성동구 왕십리2동
제민약국,127.0585697875,37.5364546819,성동구,성수2가1동,서울특별시 성동구 성수2가1동
우리은행화양동지점,127.0661978728,37.5481599541,성동구,성수2가3동,서울특별시 성동구 성수2가3동
황학교.텐즈힐몰,127.023533894,37.5700501036,성동구,왕십리도선동,서울특별시 성동구 왕십리도선동
마장동주민센터,127.0444218556,37.5670586199,성동구,마장동,서울특별시 성동구 마장동
왕십리광장.왕십리역7번출구,127.0366304963,37.5611650431,성동구,행당1동,서울특별시 성동구 행당1동
왕십리광장.왕십리역4번출구,127.0369869249,37.5613053229,성동구,행당1동,서울특별시 성동구 행당1동
한양대동문앞,127.0497683287,37.5555504086,성동구,사근동,서울특별시 성동구 사근동
왕십리도선동주민센터,127.0245589193,37.567702486,성동구,왕십리도선동,서울특별시 성동구 왕십리도선동
한양여대앞,127.0508143422,37.5586948385,성동구,사근동,서울특별시 성동구 사근동
행당중학교,127.0432115849,37.5537427563,성동구,사근동,서울특별시 성동구 사근동
송정동현대아이파크아파트,127.0686200823,37.5521310017,성동구,송정동,서울특별시 성동구 송정동
극동아파트5동,127.0111324933,37.5431167579,성동구,옥수동,서울특별시 성동구 옥수동
대우아파트관리실,127.0201785584,37.5463476118,성동구,금호4가동,서울특별시 성동구 금호4가동
두산아파트정문.금호역,127.0167194567,37.5485451442,성동구,금호2.3가동,서울특별시 성동구 금호2.3가동
신금호역,127.0204795664,37.5546898461,성동구,금호1가동,서울특별시 성동구 금호1가동
옥수역,127.017198,37.541423,성동구,옥수동,서울특별시 성동구 옥수동
송정동자치회관,127.0687457467,37.5507251349,성동구,송정동,서울특별시 성동구 송정동
대우아파트후문,127.0216620179,37.5469411322,성동구,금호4가동,서울특별시 성동구 금호4가동
금호1가동주민센터,127.0220907306,37.555138458,성동구,금호1가동,서울특별시 성동구 금호1가동
왕십리민자역사,127.0378709299,37.5618301291,성동구,행당1동,서울특별시 성동구 행당1동
무쇠막,127.0245946774,37.5453112369,성동구,금호4가동,서울특별시 성동구 금호4가동
송정어린이집,127.0677658818,37.548996005,성동구,송정동,서울특별시 성동구 송정동
금옥초등학교입구,127.0196494758,37.546982499,성동구,금호4가동,서울특별시 성동구 금호4가동
대경생활과학고등학교,127.0175256028,37.5559794313,성동구,금호2.3가동,서울특별시 성동구 금호2.3가동
금북초등학교.e편한세상금호105동,127.0237349193,37.5556405788,성동구,금호1가동,서울특별시 성동구 금호1가동
무학여고,127.0339481756,37.557493373,성동구,행당2동,서울특별시 성동구 행당2동
힐스테이트서울숲리버,127.0253150506,37.5467638544,성동구,금호4가동,서울특별시 성동구 금호4가동
성수SKV1센터1동,127.0659474181,37.5457861594,성동구,성수2가3동,서울특별시 성동구 성수2가3동
극동아파트상가,127.0121693626,37.5429753642,성동구,옥수동,서울특별시 성동구 옥수동
모닝후레쉬,127.0225788062,37.5482153354,성동구,금호4가동,서울특별시 성동구 금호4가동
화단삼거리,127.0198717313,37.5483566468,성동구,금호2.3가동,서울특별시 성동구 금호2.3가동
금호어린이집,127.0183722415,37.5567324189,성동구,금호2.3가동,서울특별시 성동구 금호2.3가동
논골.금호벽산아파트.성동공유센터,127.0253245486,37.55565645,성동구,행당2동,서울특별시 성동구 행당2동
행당서울숲푸르지오상가앞,127.0339256912,37.5556592371,성동구,행당2동,서울특별시 성동구 행당2동
성수이비즈센터,127.063231722,37.5464880663,성동구,성수2가3동,서울특별시 성동구 성수2가3동
한남하이츠아파트,127.0115392939,37.5400379837,성동구,옥수동,서울특별시 성동구 옥수동
금호사거리,127.0251954434,37.5480723627,성동구,금호4가동,서울특별시 성동구 금호4가동
금호산입구,127.0193740788,37.5564151559,성동구,금호2.3가동,서울특별시 성동구 금호2.3가동
한진아파트후문,127.0269174434,37.5561203222,성동구,행당2동,서울특별시 성동구 행당2동
신동아아파트후문,127.0327635338,37.5547905572,성동구,행당2동,서울특별시 성동구 행당2동
경수중학교입구,127.0603770974,37.5435412604,성동구,성수2가3동,서울특별시 성동구 성수2가3동
제일감리교회,127.0268802225,37.5479713914,성동구,금호4가동,서울특별시 성동구 금호4가동
신금호역,127.0198759102,37.5545888744,성동구,금호2.3가동,서울특별시 성동구 금호2.3가동
행당서울숲푸르지오109동앞,127.031669261,37.5544129848,성동구,행당2동,서울특별시 성동구 행당2동
벽산아파트정문,127.0249771978,37.552902894,성동구,금호1가동,서울특별시 성동구 금호1가동
성수역2번출구,127.057310321,37.5443374569,성동구,성수2가3동,서울특별시 성동구 성수2가3동
옥수종합사회복지관,127.012895643,37.5409593479,성동구,옥수동,서울특별시 성동구 옥수동
응봉동현대아파트,127.0308319572,37.5498838216,성동구,응봉동,서울특별시 성동구 응봉동
행당2동주민센터,127.0306097872,37.5578421115,성동구,행당2동,서울특별시 성동구 행당2동
삼거리정자앞,127.0317245348,37.5525988402,성동구,응봉동,서울특별시 성동구 응봉동
금호119안전센터,127.0245823383,37.5541477535,성동구,금호1가동,서울특별시 성동구 금호1가동
경동초등학교입구,127.050882065,37.5459918164,성동구,성수2가3동,서울특별시 성동구 성수2가3동
옥수삼성아파트,127.0139523967,37.5406871963,성동구,옥수동,서울특별시 성동구 옥수동
현대공업사앞,127.032545,37.550052,성동구,응봉동,서울특별시 성동구 응봉동
두산상가후문,127.0167410318,37.5491766426,성동구,금호2.3가동,서울특별시 성동구 금호2.3가동
중앙병원,127.0193951883,37.5519601822,성동구,금호2.3가동,서울특별시 성동구 금호2.3가동
무학중학교.무학여고,127.0330916608,37.5583228994,성동구,행당2동,서울특별시 성동구 행당2동
만물상회앞,127.0312621973,37.5527947678,성동구,응봉동,서울특별시 성동구 응봉동
논골사거리,127.0247500303,37.5553260249,성동구,금호1가동,서울특별시 성동구 금호1가동
응봉초등학교.대림아파트,127.0333870238,37.5510876061,성동구,응봉동,서울특별시 성동구 응봉동
한신아파트,127.0193680629,37.5507527936,성동구,금호2.3가동,서울특별시 성동구 금호2.3가동
상봉노인정앞,127.0301818725,37.5527985821,성동구,응봉동,서울특별시 성동구 응봉동
논골신협.대림아파트후문,127.024547,37.5576898228,성동구,행당2동,서울특별시 성동구 행당2동
옥수삼성아파트,127.014320205,37.5407561973,성동구,옥수동,서울특별시 성동구 옥수동
응봉역.광희중,127.0344314805,37.5520553876,성동구,응봉동,서울특별시 성동구 응봉동
우리은행.백범학원터,127.0210840685,37.5479268382,성동구,금호4가동,서울특별시 성동구 금호4가동
금남시장.화단앞,127.0193437916,37.5483616496,성동구,금호2.3가동,서울특별시 성동구 금호2.3가동
금호공원,127.0197021473,37.5496641739,성동구,금호2.3가동,서울특별시 성동구 금호2.3가동
대현산체육관입구,127.0298847217,37.553064031,성동구,응봉동,서울특별시 성동구 응봉동
지하철2호선성수역,127.0546991362,37.5448484954,성동구,성수2가3동,서울특별시 성동구 성수2가3동
옥수종합사회복지관,127.013236616,37.5409029389,성동구,옥수동,서울특별시 성동구 옥수동
대우아파트입구,127.019062569,37.5460282518,성동구,금호4가동,서울특별시 성동구 금호4가동
원형화단,127.0195890845,37.5485882885,성동구,금호2.3가동,서울특별시 성동구 금호2.3가동
성동구청,127.0363309899,37.5639639223,성동구,행당1동,서울특별시 성동구 행당1동
금봉어린이집.또또와마트,127.0288254742,37.5528326525,성동구,금호1가동,서울특별시 성동구 금호1가동
경수중학교입구,127.0585714357,37.5436885612,성동구,성수2가3동,서울특별시 성동구 성수2가3동
옥정중학교,127.0112149404,37.5413438103,성동구,옥수동,서울특별시 성동구 옥수동
응봉사거리,127.0343274262,37.5548564736,성동구,행당1동,서울특별시 성동구 행당1동
천은교회.성동청소년상담복지센터,127.0267176277,37.5547320389,성동구,행당2동,서울특별시 성동구 행당2동
극동아파트상가,127.0123618477,37.5429067345,성동구,옥수동,서울특별시 성동구 옥수동
무학여고,127.0340971053,37.5577108238,성동구,행당1동,서울특별시 성동구 행당1동
한전입구,127.0351075215,37.5662070901,성동구,왕십리도선동,서울특별시 성동구 왕십리도선동
논골입구.성동공유센터,127.0256127459,37.5554578487,성동구,행당2동,서울특별시 성동구 행당2동
극동아파트7동,127.012756184,37.5436174083,성동구,옥수동,서울특별시 성동구 옥수동
성동보건소,127.0331740757,37.5664273982,성동구,왕십리도선동,서울특별시 성동구 왕십리도선동
행당역.대림아파트정문,127.0286814678,37.5570374838,성동구,행당2동,서울특별시 성동구 행당2동
청계벽산아파트,127.0303063009,37.568266037,성동구,왕십리도선동,서울특별시 성동구 왕십리도선동
논골.e편한세상금호114동,127.0246634903,37.5551810962,성동구,금호1가동,서울특별시 성동구 금호1가동
코스모타워,127.0329214398,37.5628527552,성동구,왕십리도선동,서울특별시 성동구 왕십리도선동
화단앞,127.0196460688,37.5486248425,성동구,금호2.3가동,서울특별시 성동구 금호2.3가동
성동사회복지관.청계천박물관,127.0333146366,37.5704442839,성동구,마장동,서울특별시 성동구 마장동
금호119안전센터,127.0245383004,37.5542284524,성동구,금호1가동,서울특별시 성동구 금호1가동
왕약국,127.0655677233,37.5483442469,성동구,송정동,서울특별시 성동구 송정동
상왕십리역,127.0301703721,37.5647446897,성동구,왕십리도선동,서울특별시 성동구 왕십리도선동
금호공원,127.0197599598,37.5496523276,성동구,금호2.3가동,서울특별시 성동구 금호2.3가동
성동구도시관리공단.서울시시설관리공단,127.0368547722,37.5719534623,성동구,마장동,서울특별시 성동구 마장동
e편한세상금호117동,127.0248878772,37.552549219,성동구,금호1가동,서울특별시 성동구 금호1가동
왕십리자이.신당현대아파트,127.0237948942,37.5608314367,성동구,왕십리2동,서울특별시 성동구 왕십리2동
중앙슈퍼,127.0665038731,37.5495297856,성동구,송정동,서울특별시 성동구 송정동
한신아파트,127.019421509,37.5507581051,성동구,금호2.3가동,서울특별시 성동구 금호2.3가동
마장동축산물시장,127.0374485268,37.5696463495,성동구,마장동,서울특별시 성동구 마장동
금호고등학교,127.0239834609,37.5528466844,성동구,금호1가동,서울특별시 성동구 금호1가동
극동.풍림아파트,127.023712579,37.5590405165,성동구,왕십리2동,서울특별시 성동구 왕십리2동
GS25,127.0671372779,37.5503170498,성동구,송정동,서울특별시 성동구 송정동
중앙병원앞,127.019452784,37.5521282246,성동구,금호2.3가동,서울특별시 성동구 금호2.3가동
도선동사거리,127.0366528058,37.5667469532,성동구,마장동,서울특별시 성동구 마장동
논골신협.대림아파트후문,127.0246060858,37.5575415956,성동구,행당2동,서울특별시 성동구 행당2동
송정동자치회관입구,127.0678029101,37.5511460527,성동구,송정동,서울특별시 성동구 송정동
성동구청,127.0360783645,37.5634126028,성동구,왕십리도선동,서울특별시 성동구 왕십리도선동
논골사거리,127.0248124796,37.5561260597,성동구,행당2동,서울특별시 성동구 행당2동
신금호역,127.0197174354,37.5543610157,성동구,금호2.3가동,서울특별시 성동구 금호2.3가동
성동중앙교회.벽산아파트정문,127.0248707232,37.5530159175,성동구,금호1가동,서울특별시 성동구 금호1가동
무학중학교.무학여고,127.0332959331,37.5584015487,성동구,행당1동,서울특별시 성동구 행당1동
천은교회.성동청소년상담복지센터,127.026679896,37.5546179531,성동구,금호1가동,서울특별시 성동구 금호1가동
금호어린이집,127.0183946412,37.5568525348,성동구,금호2.3가동,서울특별시 성동구 금호2.3가동
행당2동주민센터,127.0304204605,37.5578299748,성동구,행당2동,서울특별시 성동구 행당2동
금봉어린이집.또또와마트,127.0287800437,37.5527054347,성동구,금호1가동,서울특별시 성동구 금호1가동
대경생활과학고등학교,127.0174773813,37.5560969553,성동구,금호2.3가동,서울특별시 성동구 금호2.3가동
대현산체육관입구,127.0296873799,37.5530229723,성동구,응봉동,서울특별시 성동구 응봉동
GS주유소,127.0252357199,37.5467783786,성동구,금호4가동,서울특별시 성동구 금호4가동
대림아파트후문,127.0269327633,37.5561714047,성동구,행당2동,서울특별시 성동구 행당2동
응봉하이퍼마트,127.0301439747,37.5527526773,성동구,응봉동,서울특별시 성동구 응봉동
서울숲푸르지오아파트정문,127.0244685791,37.545231922,성동구,금호4가동,서울특별시 성동구 금호4가동
대림상가,127.0344593886,37.5538610505,성동구,응봉동,서울특별시 성동구 응봉동
충북상회,127.0310292934,37.5528403625,성동구,응봉동,서울특별시 성동구 응봉동
서울숲푸르지오아파트후문,127.0227817348,37.5435114155,성동구,금호4가동,서울특별시 성동구 금호4가동
무학여고,127.0338865731,37.5582831497,성동구,행당2동,서울특별시 성동구 행당2동
무학여고,127.0340505738,37.5582850004,성동구,행당1동,서울특별시 성동구 행당1동
응봉사거리,127.0341199901,37.5553033716,성동구,행당2동,서울특별시 성동구 행당2동
응봉사거리,127.0343105543,37.5550710207,성동구,행당1동,서울특별시 성동구 행당1동
응봉역.광희중,127.0344115952,37.5521495754,성동구,응봉동,서울특별시 성동구 응봉동
삼거리정자,127.0316785323,37.5524346575,성동구,응봉동,서울특별시 성동구 응봉동
금호초등학교,127.0194655812,37.5526888449,성동구,금호2.3가동,서울특별시 성동구 금호2.3가동
응봉초등학교.대림아파트,127.0331097428,37.5508199975,성동구,응봉동,서울특별시 성동구 응봉동
행당서울숲푸르지오109동앞,127.0317465902,37.5544131884,성동구,행당2동,서울특별시 성동구 행당2동
현대공업사앞,127.032478314,37.550136855,성동구,응봉동,서울특별시 성동구 응봉동
신동아아파트후문,127.0328002816,37.554740614,성동구,행당2동,서울특별시 성동구 행당2동
신동아아파트,127.0301441747,37.5497116464,성동구,응봉동,서울특별시 성동구 응봉동
행당서울숲푸르지오상가앞,127.0339576415,37.5556007513,성동구,행당2동,서울특별시 성동구 행당2동
삼성래미안아파트,127.0275892106,37.5483354656,성동구,금호1가동,서울특별시 성동구 금호1가동
금호사거리,127.0250580096,37.5481379301,성동구,금호2.3가동,서울특별시 성동구 금호2.3가동
금남시장앞.백범학원터,127.0216508883,37.5483187055,성동구,금호2.3가동,서울특별시 성동구 금호2.3가동
왕십리광장.왕십리역7번출구,127.0364978323,37.5611502683,성동구,행당1동,서울특별시 성동구 행당1동
두산상가후문,127.0167118531,37.5492676471,성동구,금호2.3가동,서울특별시 성동구 금호2.3가동
극동아파트7동,127.012699788,37.5437471593,성동구,옥수동,서울특별시 성동구 옥수동
두산아파트111동,127.0160745782,37.5506220394,성동구,금호2.3가동,서울특별시 성동구 금호2.3가동
두산아파트109동,127.0166788462,37.5498074751,성동구,금호2.3가동,서울특별시 성동구 금호2.3가동
극동아파트4동,127.0115747258,37.543542706,성동구,옥수동,서울특별시 성동구 옥수동
극동아파트4동,127.0116560813,37.5435282427,성동구,옥수동,서울특별시 성동구 옥수동
두산아파트109동,127.0167755571,37.5498566987,성동구,금호2.3가동,서울특별시 성동구 금호2.3가동
두산아파트115동,127.0161115369,37.5509622721,성동구,금호2.3가동,서울특별시 성동구 금호2.3가동
금호역,127.0168604575,37.5484837072,성동구,금호2.3가동,서울특별시 성동구 금호2.3가동
두산아파트정문.금호역,127.0166606915,37.548491555,성동구,금호4가동,서울특별시 성동구 금호4가동
금호역,127.0164962242,37.548548044,성동구,금호4가동,서울특별시 성동구 금호4가동
금호역.3호선,127.0166130707,37.548307264,성동구,금호4가동,서울특별시 성동구 금호4가동
화단삼거리,127.0196306274,37.5483264806,성동구,금호2.3가동,서울특별시 성동구 금호2.3가동
두산아파트111동,127.0160864507,37.5507293471,성동구,금호2.3가동,서울특별시 성동구 금호2.3가동
벽산아파트501동앞,127.0255100206,37.5548899211,성동구,금호1가동,서울특별시 성동구 금호1가동
벽산아파트505동앞,127.0262410697,37.5544020704,성동구,금호1가동,서울특별시 성동구 금호1가동
벽산아파트111동앞,127.0268847096,37.5530432668,성동구,금호1가동,서울특별시 성동구 금호1가동
벽산아파트206동앞,127.0273214141,37.5521530258,성동구,금호1가동,서울특별시 성동구 금호1가동
벽산아파트202동앞,127.027331943,37.5513787473,성동구,금호1가동,서울특별시 성동구 금호1가동
벽산하이피아상가앞,127.0256317662,37.5521878048,성동구,금호1가동,서울특별시 성동구 금호1가동
우리은행.백범학원터,127.0209678385,37.5483051902,성동구,금호2.3가동,서울특별시 성동구 금호2.3가동
행당푸르지오아파트,127.034045985,37.5562411483,성동구,행당2동,서울특별시 성동구 행당2동
왕십리역,127.037685,37.560936,성동구,행당1동,서울특별시 성동구 행당1동
옥정중학교,127.0112028231,37.541256219,성동구,옥수동,서울특별시 성동구 옥수동
옥정중학교,127.0110855865,37.5409472881,성동구,옥수동,서울특별시 성동구 옥수동
옥수삼성아파트,127.0147265028,37.5437405214,성동구,옥수동,서울특별시 성동구 옥수동
옥수삼성아파트,127.0146116445,37.5437953264,성동구,옥수동,서울특별시 성동구 옥수동
금옥초등학교.금호대우아파트,127.0188418238,37.5465437347,성동구,금호4가동,서울특별시 성동구 금호4가동
금옥초등학교.금호대우아파트,127.0186998297,37.5465529513,성동구,금호4가동,서울특별시 성동구 금호4가동
금호사거리,127.0241965947,37.5481271813,성동구,금호4가동,서울특별시 성동구 금호4가동
금호사거리,127.0249995161,37.5481421235,성동구,금호2.3가동,서울특별시 성동구 금호2.3가동
금호삼성래미안,127.026957,37.547983,성동구,금호4가동,서울특별시 성동구 금호4가동
금호삼성래미안,127.027564047,37.5483239133,성동구,금호1가동,서울특별시 성동구 금호1가동
응봉현대아파트,127.0306043726,37.549877679,성동구,응봉동,서울특별시 성동구 응봉동
응봉현대아파트,127.0308966167,37.550136835,성동구,응봉동,서울특별시 성동구 응봉동
응봉주민센터,127.0333839185,37.5535265804,성동구,응봉동,서울특별시 성동구 응봉동
응봉주민센터,127.0336572949,37.5539626754,성동구,응봉동,서울특별시 성동구 응봉동
래미안옥수리버젠아파트,127.0147395148,37.5457739031,성동구,옥수동,서울특별시 성동구 옥수동
래미안옥수리버젠아파트상가,127.0157338225,37.5443660175,성동구,옥수동,서울특별시 성동구 옥수동
옥수동주민센터.옥수동성당,127.0140223659,37.5435997344,성동구,옥수동,서울특별시 성동구 옥수동
국민은행,127.0122495181,37.5426775437,성동구,옥수동,서울특별시 성동구 옥수동
국민은행,127.0126663067,37.5428652316,성동구,옥수동,서울특별시 성동구 옥수동
옥수동주민센터.옥수동성당,127.013604931,37.5433723017,성동구,옥수동,서울특별시 성동구 옥수동
삼성아파트정문,127.0151970112,37.5439337783,성동구,옥수동,서울특별시 성동구 옥수동
래미안옥수리버젠아파트,127.0148111021,37.5458258085,성동구,옥수동,서울특별시 성동구 옥수동
성동노인종합복지관,127.0414423862,37.5651653225,성동구,마장동,서울특별시 성동구 마장동
중앙하이츠아파트,127.0389053369,37.5651483067,성동구,마장동,서울특별시 성동구 마장동
민자역사후문,127.0383593491,37.5635268948,성동구,마장동,서울특별시 성동구 마장동
금호1가동주민센터,127.0208124235,37.5547324608,성동구,금호1가동,서울특별시 성동구 금호1가동
금호정형외과,127.0205120268,37.5541301065,성동구,금호2.3가동,서울특별시 성동구 금호2.3가동
금호고등학교앞,127.0236268677,37.5529185041,성동구,금호2.3가동,서울특별시 성동구 금호2.3가동
벽산하이피아상가,127.0259695714,37.5519868703,성동구,금호1가동,서울특별시 성동구 금호1가동
벽산노인정,127.0268495117,37.5510967253,성동구,금호1가동,서울특별시 성동구 금호1가동
벽산아파트107동,127.0274199094,37.5516872349,성동구,금호1가동,서울특별시 성동구 금호1가동
벽산아파트109동,127.0273951352,37.5526349535,성동구,금호1가동,서울특별시 성동구 금호1가동
벽산아파트505동,127.0263400813,37.5543018672,성동구,금호1가동,서울특별시 성동구 금호1가동
벽산아파트501동,127.0255118585,37.5549687041,성동구,금호1가동,서울특별시 성동구 금호1가동
광희중학교.응봉역,127.0350706955,37.5519129759,성동구,응봉동,서울특별시 성동구 응봉동
한신아파트후문,127.0372040877,37.5539320626,성동구,행당1동,서울특별시 성동구 행당1동
한신아파트정문,127.0353815605,37.5548244508,성동구,행당1동,서울특별시 성동구 행당1동
민자역사후문,127.0385138637,37.5635258657,성동구,마장동,서울특별시 성동구 마장동
중앙하이츠아파트,127.0386039112,37.5650300147,성동구,마장동,서울특별시 성동구 마장동
삼성래미안아파트,127.0402874379,37.5655445348,성동구,마장동,서울특별시 성동구 마장동
금북초등학교입구,127.0236159541,37.5556976252,성동구,금호1가동,서울특별시 성동구 금호1가동
대현산배수지공원앞,127.022027354,37.5551809508,성동구,금호1가동,서울특별시 성동구 금호1가동
선영약국,127.0307609218,37.5666933608,성동구,왕십리도선동,서울특별시 성동구 왕십리도선동
텐즈힐아파트101동.115동,127.0293677681,37.5668866065,성동구,왕십리도선동,서울특별시 성동구 왕십리도선동
숭신초등학교.도선고등학교앞,127.0271519873,37.5672746588,성동구,왕십리도선동,서울특별시 성동구 왕십리도선동
왕십리도선동주민센터,127.0258771645,37.5677092102,성동구,왕십리도선동,서울특별시 성동구 왕십리도선동
텐즈힐아파트120동.213동앞,127.0260004298,37.5689067331,성동구,왕십리도선동,서울특별시 성동구 왕십리도선동
왕십리중앙교회,127.0265653842,37.5701571296,성동구,왕십리도선동,서울특별시 성동구 왕십리도선동
마장동현대아파트,127.0431668658,37.5700985807,성동구,마장동,서울특별시 성동구 마장동
청계장원아파트,127.0448624237,37.5692192775,성동구,마장동,서울특별시 성동구 마장동
마장2교사거리,127.0454172455,37.5677873907,성동구,마장동,서울특별시 성동구 마장동
마장2교사거리,127.0456063055,37.5681835344,성동구,마장동,서울특별시 성동구 마장동
청계장원아파트,127.0448776553,37.5693654779,성동구,마장동,서울특별시 성동구 마장동
옥수교회,127.0159088711,37.5452123518,성동구,옥수동,서울특별시 성동구 옥수동
텐즈힐아파트107동앞,127.0284969628,37.5695344087,성동구,왕십리도선동,서울특별시 성동구 왕십리도선동
응봉동현대아파트,127.0309773345,37.5499152017,성동구,응봉동,서울특별시 성동구 응봉동
논골.대림아파트107동.금호동벽산아파트,127.0248578664,37.5558962973,성동구,행당2동,서울특별시 성동구 행당2동
옥수역5.6번출구,127.0170557511,37.5418521021,성동구,옥수동,서울특별시 성동구 옥수동
서울숲푸르지오아파트,127.024387,37.544964,성동구,금호4가동,서울특별시 성동구 금호4가동
언더스탠드애비뉴,127.0426916535,37.5435455632,성동구,성수1가1동,서울특별시 성동구 성수1가1동
성동구민체육센터,127.0444590964,37.5451501319,성동구,성수1가1동,서울특별시 성동구 성수1가1동
서울숲역,127.0452125502,37.5435964847,성동구,성수1가1동,서울특별시 성동구 성수1가1동
경일중고등학교,127.0489410084,37.5423128259,성동구,성수1가1동,서울특별시 성동구 성수1가1동
이마트.서울숲힐스테이트아파트,127.0526226232,37.5402565429,성동구,성수2가1동,서울특별시 성동구 성수2가1동
서울숲코오롱디지털타워2차,127.05390179,37.5413003471,성동구,성수2가1동,서울특별시 성동구 성수2가1동
서울경찰청제6기동단,127.0546849454,37.5400610375,성동구,성수2가1동,서울특별시 성동구 성수2가1동
한라시그마밸리앞,127.0554059613,37.5399244973,성동구,성수2가1동,서울특별시 성동구 성수2가1동
성수역3번출구,127.0571449922,37.5439353328,성동구,성수2가3동,서울특별시 성동구 성수2가3동
서울숲코오롱디지털타워2차,127.0537619713,37.5413754422,성동구,성수2가1동,서울특별시 성동구 성수2가1동
이마트.서울숲힐스테이트아파트,127.0524267777,37.5402954327,성동구,성수2가1동,서울특별시 성동구 성수2가1동
현대그린아파트,127.0497160877,37.5405264909,성동구,성수1가1동,서울특별시 성동구 성수1가1동
성수역3번출구,127.0566384298,37.5435713884,성동구,성수2가3동,서울특별시 성동구 성수2가3동
경일중고등학교,127.0491251858,37.5424133342,성동구,성수1가1동,서울특별시 성동구 성수1가1동
한라시그마밸리,127.0552202612,37.539895918,성동구,성수2가1동,서울특별시 성동구 성수2가1동
서울경찰청제6기동단,127.0549882171,37.5400117106,성동구,성수2가1동,서울특별시 성동구 성수2가1동
서울숲역,127.0451026335,37.5439025238,성동구,성수1가1동,서울특별시 성동구 성수1가1동
성동구민종합체육센터,127.0443143499,37.5453163714,성동구,성수1가1동,서울특별시 성동구 성수1가1동
언더스탠드애비뉴,127.0426064524,37.5436490297,성동구,성수1가1동,서울특별시 성동구 성수1가1동
뚝섬서울숲,127.0373600279,37.5436793638,성동구,성수1가1동,서울특별시 성동구 성수1가1동
옥수역2번출구,127.0174711676,37.541766375,성동구,옥수동,서울특별시 성동구 옥수동
성수대교북단교차로,127.0354028376,37.5442846677,성동구,성수1가1동,서울특별시 성동구 성수1가1동
옥수파크힐스아파트,127.0128528082,37.547247588,성동구,옥수동,서울특별시 성동구 옥수동
옥수파크힐스아파트,127.0128041372,37.5471585401,성동구,옥수동,서울특별시 성동구 옥수동
마장역,127.042685192,37.5660808749,성동구,마장동,서울특별시 성동구 마장동
마장역,127.0430045293,37.5660485743,성동구,마장동,서울특별시 성동구 마장동
옥정초등학교,127.0153972898,37.5409345767,성동구,옥수동,서울특별시 성동구 옥수동
e편한세상금호109동,127.0221425975,37.5533867851,성동구,금호1가동,서울특별시 성동구 금호1가동
왕십리자이아파트107동,127.0259542369,37.5597139713,성동구,왕십리2동,서울특별시 성동구 왕십리2동
왕십리KCC스위첸아파트,127.026971036,37.5603674534,성동구,왕십리2동,서울특별시 성동구 왕십리2동
금호베스트빌아파트노인정앞,127.0250550466,37.5618425667,성동구,왕십리2동,서울특별시 성동구 왕십리2동
풍림아이원아파트후문,127.0268241925,37.5602299845,성동구,왕십리2동,서울특별시 성동구 왕십리2동
응봉역.광희중학교,127.0355465733,37.5518243329,성동구,응봉동,서울특별시 성동구 응봉동
대림강변타운아파트A상가,127.0358684028,37.5546280952,성동구,응봉동,서울특별시 성동구 응봉동
리버그린동아아파트정문,127.0375191504,37.5534830046,성동구,응봉동,서울특별시 성동구 응봉동
서울숲리버뷰자이아파트제2주차장,127.0393651004,37.5563523353,성동구,행당1동,서울특별시 성동구 행당1동
서울숲리버뷰자이아파트제2주차장,127.0392594831,37.5563056154,성동구,행당1동,서울특별시 성동구 행당1동
서울숲리버뷰자이아파트제1주차장,127.0390069327,37.554162409,성동구,행당1동,서울특별시 성동구 행당1동
왕십리로교차로,127.0390032468,37.5577270748,성동구,행당1동,서울특별시 성동구 행당1동
왕십리로교차로,127.0391115216,37.5577651998,성동구,행당1동,서울특별시 성동구 행당1동
리버그린동아아파트,127.0383415206,37.5532959144,성동구,응봉동,서울특별시 성동구 응봉동
서울숲리버뷰자이아파트제1주차장,127.0393459933,37.5546993244,성동구,행당1동,서울특별시 성동구 행당1동
왕십리역6-1번출구,127.0377868219,37.5610630068,성동구,행당1동,서울특별시 성동구 행당1동
행당동서울숲더샵,127.0399242207,37.5577937282,성동구,사근동,서울특별시 성동구 사근동
행당동서울숲더샵,127.0392783607,37.5581454618,성동구,사근동,서울특별시 성동구 사근동
서울숲공원,127.0425035261,37.542174923,성동구,성수1가1동,서울특별시 성동구 성수1가1동
성수역수제화거리,127.0537812121,37.5452626723,성동구,성수2가3동,서울특별시 성동구 성수2가3동
한양대역,127.0431653728,37.5568385373,성동구,사근동,서울특별시 성동구 사근동
한양대학교병원본관1층,127.0437074592,37.5594575201,성동구,사근동,서울특별시 성동구 사근동
한양대학교병원본관1층,127.0436342454,37.559453125,성동구,사근동,서울특별시 성동구 사근동
한양대학교병원응급실,127.0445586084,37.5598964374,성동구,사근동,서울특별시 성동구 사근동
한양대학교류마티스병원동관,127.0446475504,37.5598335901,성동구,사근동,서울특별시 성동구 사근동
한양대학교백남학술정보관,127.0447170912,37.5590465216,성동구,사근동,서울특별시 성동구 사근동
한양대학교종합기술연구원,127.044837576,37.5590180611,성동구,사근동,서울특별시 성동구 사근동
한양대학교생활과학대학,127.046310436,37.5568883401,성동구,사근동,서울특별시 성동구 사근동
한양대학교정문,127.0419314829,37.5579540386,성동구,사근동,서울특별시 성동구 사근동
한양대학교제2의학관,127.0419241639,37.5588153164,성동구,사근동,서울특별시 성동구 사근동
한양대학교동문회관,127.0418225638,37.5588329135,성동구,사근동,서울특별시 성동구 사근동
한양대학교정문,127.0420580545,37.5577706354,성동구,사근동,서울특별시 성동구 사근동
군자교입구,127.0756403407,37.5587315243,광진구,중곡1동,서울특별시 광진구 중곡1동
군자교입구,127.0748828032,37.5587645852,광진구,군자동,서울특별시 광진구 군자동
군자역.용마초등학교,127.08245246,37.5560651252,광진구,중곡2동,서울특별시 광진구 중곡2동
군자역.용마초등학교,127.0815389967,37.5561793641,광진구,능동,서울특별시 광진구 능동
중곡동입구삼거리,127.0865474987,37.5544916304,광진구,중곡2동,서울특별시 광진구 중곡2동
어린이대공원후문아차산역,127.0902385392,37.5512477746,광진구,구의2동,서울특별시 광진구 구의2동
어린이대공원후문아차산역,127.0891986787,37.552406179,광진구,능동,서울특별시 광진구 능동
중곡동입구삼거리,127.0849041555,37.5548902929,광진구,능동,서울특별시 광진구 능동
새밭교회,127.0935004562,37.5489216645,광진구,구의2동,서울특별시 광진구 구의2동
새밭교회,127.0926649335,37.5490377373,광진구,구의2동,서울특별시 광진구 구의2동
광나루역,127.1033375855,37.5456167305,광진구,광장동,서울특별시 광진구 광장동
광나루역,127.1034045767,37.5454440996,광진구,광장동,서울특별시 광진구 광장동
군자교,127.0750846593,37.5615777491,광진구,중곡1동,서울특별시 광진구 중곡1동
군자교,127.0753577739,37.5623409399,광진구,중곡1동,서울특별시 광진구 중곡1동
메리놀외방선교회,127.0775410538,37.5592111642,광진구,중곡1동,서울특별시 광진구 중곡1동
메리놀외방선교회,127.0775487065,37.5591154731,광진구,중곡1동,서울특별시 광진구 중곡1동
중곡1동주민센터입구,127.078201049,37.5602947555,광진구,중곡1동,서울특별시 광진구 중곡1동
중곡1동주민센터입구,127.0785051723,37.560946104,광진구,중곡1동,서울특별시 광진구 중곡1동
중곡1동사거리,127.0794073331,37.5624763165,광진구,중곡1동,서울특별시 광진구 중곡1동
중곡1동사거리,127.0794125475,37.5626162268,광진구,중곡1동,서울특별시 광진구 중곡1동
중마초등학교.중곡제일골목시장앞,127.0809045597,37.565244704,광진구,중곡3동,서울특별시 광진구 중곡3동
용마사거리,127.0819134021,37.5623685767,광진구,중곡1동,서울특별시 광진구 중곡1동
중곡2동주민센터앞,127.0809138382,37.5598621784,광진구,중곡1동,서울특별시 광진구 중곡1동
중곡2동주민센터앞,127.0810625098,37.5598745115,광진구,중곡2동,서울특별시 광진구 중곡2동
중곡동성당앞,127.08273817,37.5629278921,광진구,중곡2동,서울특별시 광진구 중곡2동
종합의료복합단지,127.0832710471,37.5639183589,광진구,중곡2동,서울특별시 광진구 중곡2동
중곡동종점,127.0871174379,37.5620783933,광진구,중곡2동,서울특별시 광진구 중곡2동
중곡보건지소,127.0871445522,37.5596828679,광진구,중곡2동,서울특별시 광진구 중곡2동
신성시장앞,127.0877591991,37.558325025,광진구,중곡2동,서울특별시 광진구 중곡2동
중곡우체국앞,127.0839380816,37.5614341717,광진구,중곡2동,서울특별시 광진구 중곡2동
면곡시장,127.0796078755,37.5697690829,광진구,중곡3동,서울특별시 광진구 중곡3동
면곡시장,127.0795988366,37.5702740161,광진구,중곡3동,서울특별시 광진구 중곡3동
중곡아파트,127.0778111492,37.5664322223,광진구,중곡3동,서울특별시 광진구 중곡3동
중곡아파트,127.0772599614,37.5657663783,광진구,중곡1동,서울특별시 광진구 중곡1동
중마초등학교.중곡제일골목시장앞,127.0809767205,37.5655045279,광진구,중곡3동,서울특별시 광진구 중곡3동
중곡역입구,127.081531113,37.5663697968,광진구,중곡3동,서울특별시 광진구 중곡3동
중곡역입구,127.0817243015,37.5668589489,광진구,중곡3동,서울특별시 광진구 중곡3동
중곡3동주민센터앞,127.0828050158,37.5686612216,광진구,중곡3동,서울특별시 광진구 중곡3동
중곡3동주민센터앞,127.0826285286,37.568496221,광진구,중곡3동,서울특별시 광진구 중곡3동
면곡시장앞,127.0832183979,37.5706266296,광진구,중곡3동,서울특별시 광진구 중곡3동
면곡시장앞,127.0833310746,37.5708984994,광진구,중곡3동,서울특별시 광진구 중곡3동
용암사입구,127.0860970309,37.5679204735,광진구,중곡3동,서울특별시 광진구 중곡3동
용곡삼거리,127.0854962983,37.5679664367,광진구,중곡3동,서울특별시 광진구 중곡3동
중곡역.국립정신건강센터,127.0844445511,37.5660809458,광진구,중곡3동,서울특별시 광진구 중곡3동
대원고교앞,127.0868057707,37.563976016,광진구,중곡3동,서울특별시 광진구 중곡3동
용암사입구,127.086266094,37.5678557946,광진구,중곡4동,서울특별시 광진구 중곡4동
대원고교앞,127.0868946151,37.5641916024,광진구,중곡4동,서울특별시 광진구 중곡4동
중곡동종점,127.0871440185,37.5626778859,광진구,중곡4동,서울특별시 광진구 중곡4동
신성시장,127.0878522092,37.5584231691,광진구,중곡4동,서울특별시 광진구 중곡4동
중곡동입구,127.0885840318,37.5541875064,광진구,중곡4동,서울특별시 광진구 중곡4동
어린이대공원앞,127.076933186,37.552074151,광진구,능동,서울특별시 광진구 능동
능동사거리.군자역,127.0785090111,37.5552146998,광진구,능동,서울특별시 광진구 능동
구의사거리.광진소방서앞,127.0839733956,37.5452073935,광진구,능동,서울특별시 광진구 능동
어린이회관,127.0773142021,37.5461600246,광진구,능동,서울특별시 광진구 능동
구의사거리.광진소방서앞,127.0845921317,37.545040436,광진구,구의1동,서울특별시 광진구 구의1동
광진경찰서,127.0838138057,37.541500129,광진구,구의1동,서울특별시 광진구 구의1동
광진경찰서,127.0845868593,37.5431031348,광진구,구의1동,서울특별시 광진구 구의1동
광진경찰서,127.0842306529,37.5422442079,광진구,구의1동,서울특별시 광진구 구의1동
광진구청,127.0833859175,37.5389761877,광진구,구의1동,서울특별시 광진구 구의1동
구의역2번출구,127.0879931323,37.5376657993,광진구,구의1동,서울특별시 광진구 구의1동
래미안구의파크스위트,127.0891153595,37.5447675962,광진구,구의1동,서울특별시 광진구 구의1동
구의2동주민센터입구,127.0898966199,37.5491704783,광진구,구의2동,서울특별시 광진구 구의2동
구의2동주민센터입구,127.0895323088,37.548680422,광진구,구의2동,서울특별시 광진구 구의2동
구의사거리,127.085819214,37.5455981534,광진구,구의2동,서울특별시 광진구 구의2동
구의사거리,127.0863043477,37.5458492702,광진구,구의2동,서울특별시 광진구 구의2동
래미안구의파크스위트,127.0890444048,37.5449037779,광진구,구의2동,서울특별시 광진구 구의2동
현대아파트앞,127.094108387,37.5395431706,광진구,구의3동,서울특별시 광진구 구의3동
현대아파트앞,127.0942173176,37.5395882382,광진구,구의3동,서울특별시 광진구 구의3동
광진우체국,127.0908228881,37.5379848095,광진구,구의3동,서울특별시 광진구 구의3동
강변역A,127.0937600919,37.536105096,광진구,구의3동,서울특별시 광진구 구의3동
테크노마트앞.강변역,127.093923,37.536515,광진구,구의3동,서울특별시 광진구 구의3동
현대2단지,127.0967339697,37.5379114031,광진구,구의3동,서울특별시 광진구 구의3동
올림픽대교북단사거리,127.0932821801,37.5434427465,광진구,구의3동,서울특별시 광진구 구의3동
올림픽대교북단사거리,127.0935981051,37.5433276109,광진구,광장동,서울특별시 광진구 광장동
광장동현대아파트앞,127.0974904697,37.5417446868,광진구,광장동,서울특별시 광진구 광장동
광장동현대아파트앞,127.0990300613,37.5420981108,광진구,광장동,서울특별시 광진구 광장동
광나루역.극동아파트,127.1029307843,37.5435873346,광진구,광장동,서울특별시 광진구 광장동
광나루역.극동아파트,127.1031164986,37.5438989972,광진구,광장동,서울특별시 광진구 광장동
워커힐아파트.광장동,127.1074993573,37.5486787181,광진구,광장동,서울특별시 광진구 광장동
워커힐아파트앞,127.1089001326,37.5505414297,광진구,광장동,서울특별시 광진구 광장동
워커힐입구,127.1088012332,37.5505854082,광진구,광장동,서울특별시 광진구 광장동
광진구청,127.0833389032,37.5385023497,광진구,구의1동,서울특별시 광진구 구의1동
자양사거리,127.0825836777,37.5368376735,광진구,자양1동,서울특별시 광진구 자양1동
자양사거리,127.0822443641,37.5367746404,광진구,자양1동,서울특별시 광진구 자양1동
자양초등학교앞,127.078639685,37.5377945943,광진구,자양1동,서울특별시 광진구 자양1동
자양초등학교앞,127.0788445477,37.5376045921,광진구,자양1동,서울특별시 광진구 자양1동
건국대학교앞,127.0748405139,37.5387341574,광진구,화양동,서울특별시 광진구 화양동
자양미소약국.자양골목시장,127.0772630843,37.5327094747,광진구,자양2동,서울특별시 광진구 자양2동
국민은행자양지점앞,127.0813946825,37.5314808534,광진구,자양2동,서울특별시 광진구 자양2동
자양아파트앞,127.0846842269,37.5320781595,광진구,자양2동,서울특별시 광진구 자양2동
자양동잠실대교북단,127.0849571895,37.5330115269,광진구,자양1동,서울특별시 광진구 자양1동
신자초등학교앞,127.0749857479,37.5303753993,광진구,자양2동,서울특별시 광진구 자양2동
자양미소약국.자양골목시장,127.0769037604,37.5327673724,광진구,자양2동,서울특별시 광진구 자양2동
국민은행자양지점앞,127.0807666595,37.5315922295,광진구,자양2동,서울특별시 광진구 자양2동
동서울우편집중국앞,127.0841616302,37.5352201668,광진구,자양2동,서울특별시 광진구 자양2동
자양아파트앞,127.0846500642,37.5320074284,광진구,자양2동,서울특별시 광진구 자양2동
자양동잠실대교북단,127.0857202332,37.532056863,광진구,자양2동,서울특별시 광진구 자양2동
구의역3번출구,127.0882468908,37.5376220052,광진구,자양2동,서울특별시 광진구 자양2동
국민은행신자양지점,127.0669186975,37.5356816344,광진구,자양4동,서울특별시 광진구 자양4동
신양초등학교앞,127.0693476352,37.5350489397,광진구,자양3동,서울특별시 광진구 자양3동
신양초등학교앞,127.0689615714,37.5352645708,광진구,자양3동,서울특별시 광진구 자양3동
뚝도변전소앞,127.0689180755,37.5361060486,광진구,자양3동,서울특별시 광진구 자양3동
광진문화예술회관,127.0700559934,37.5385993242,광진구,자양3동,서울특별시 광진구 자양3동
건국대학교앞,127.0749276025,37.5385769201,광진구,자양3동,서울특별시 광진구 자양3동
신자초등학교앞,127.0749768155,37.5307258081,광진구,자양2동,서울특별시 광진구 자양2동
자양우성아파트앞,127.0735983954,37.5338369694,광진구,자양3동,서울특별시 광진구 자양3동
자양우성아파트앞,127.0734121564,37.5339573086,광진구,자양3동,서울특별시 광진구 자양3동
자양고교앞,127.0711904481,37.5346205753,광진구,자양3동,서울특별시 광진구 자양3동
자양고교앞,127.0714303056,37.5344762331,광진구,자양3동,서울특별시 광진구 자양3동
대동아파트앞,127.0689378886,37.5364358712,광진구,자양4동,서울특별시 광진구 자양4동
국민은행신자양지점,127.0673248935,37.535693804,광진구,자양4동,서울특별시 광진구 자양4동
노룬산시장,127.0625863865,37.5395403468,광진구,자양4동,서울특별시 광진구 자양4동
건대입구역6번출구,127.0673385594,37.5409386837,광진구,자양4동,서울특별시 광진구 자양4동
건대로데오거리입구,127.0701444228,37.5390550217,광진구,자양4동,서울특별시 광진구 자양4동
노룬산시장앞,127.0629531342,37.5368259009,광진구,자양4동,서울특별시 광진구 자양4동
영동대교북단,127.0609540118,37.5366418245,광진구,자양4동,서울특별시 광진구 자양4동
노룬산시장앞,127.0629456398,37.5367165794,광진구,자양4동,서울특별시 광진구 자양4동
신양초등학교앞,127.0678111865,37.5335641935,광진구,자양3동,서울특별시 광진구 자양3동
자양4동주민센터앞,127.0677144873,37.533636266,광진구,자양3동,서울특별시 광진구 자양3동
성수사거리,127.0646564819,37.5432013335,광진구,화양동,서울특별시 광진구 화양동
화양사거리,127.0667796875,37.5469521415,광진구,화양동,서울특별시 광진구 화양동
광진광장,127.0711681248,37.5478594086,광진구,화양동,서울특별시 광진구 화양동
어린이대공원역.화양천주교회,127.0736930425,37.5466022392,광진구,화양동,서울특별시 광진구 화양동
서울화양초등학교,127.072338809,37.5437450496,광진구,화양동,서울특별시 광진구 화양동
건대입구역사거리.건대병원,127.0710277445,37.5409391399,광진구,화양동,서울특별시 광진구 화양동
건대입구역1번출구,127.068124225,37.5408158242,광진구,화양동,서울특별시 광진구 화양동
어린이대공원역3번출구,127.075317456,37.546797007,광진구,화양동,서울특별시 광진구 화양동
건대입구역사거리.건대병원,127.0711939731,37.5410014967,광진구,화양동,서울특별시 광진구 화양동
어린이회관,127.079278,37.545414,광진구,화양동,서울특별시 광진구 화양동
어린이대공원역.화양천주교회,127.0735143071,37.5459267424,광진구,화양동,서울특별시 광진구 화양동
송정동서울숲아이파크,127.0694896793,37.5517413453,광진구,군자동,서울특별시 광진구 군자동
송정동건영아파트,127.0710980445,37.5546506783,광진구,군자동,서울특별시 광진구 군자동
군자교남단,127.0726936574,37.5574448632,광진구,군자동,서울특별시 광진구 군자동
KEB.하나은행.군자동.지점,127.0767168242,37.557706017,광진구,군자동,서울특별시 광진구 군자동
KEB.하나은행.군자동.지점,127.0765174608,37.5571698474,광진구,군자동,서울특별시 광진구 군자동
능동우편취급국,127.0759998268,37.5561716863,광진구,군자동,서울특별시 광진구 군자동
군자삼거리,127.0752985599,37.5549717586,광진구,군자동,서울특별시 광진구 군자동
군자삼거리,127.0752251933,37.5546784824,광진구,군자동,서울특별시 광진구 군자동
세종초등학교.세종사이버대학교앞,127.0732517227,37.5534111107,광진구,군자동,서울특별시 광진구 군자동
세종초교앞,127.0742166138,37.553820391,광진구,군자동,서울특별시 광진구 군자동
군자새마을금고.성동광진위센터,127.0712836086,37.5518562501,광진구,군자동,서울특별시 광진구 군자동
군자새마을금고앞,127.0711180108,37.5513527392,광진구,군자동,서울특별시 광진구 군자동
장안초등학교,127.0706360722,37.5487076473,광진구,군자동,서울특별시 광진구 군자동
장안초등학교,127.0705323647,37.5485110583,광진구,군자동,서울특별시 광진구 군자동
화양사거리,127.0686728911,37.5482794295,광진구,군자동,서울특별시 광진구 군자동
광진광장,127.0713519853,37.5479651104,광진구,군자동,서울특별시 광진구 군자동
어린이대공원앞.세종대학교,127.0756091022,37.549730245,광진구,군자동,서울특별시 광진구 군자동
능동교회앞,127.077101932,37.5528418978,광진구,군자동,서울특별시 광진구 군자동
능동사거리.군자역,127.0789243308,37.5562842287,광진구,군자동,서울특별시 광진구 군자동
군자역먹자골목사거리,127.0775790025,37.5560618233,광진구,군자동,서울특별시 광진구 군자동
군자동주민센터앞,127.0761743393,37.5548765159,광진구,군자동,서울특별시 광진구 군자동
어린이대공원후문,127.0905057776,37.5508659029,광진구,구의2동,서울특별시 광진구 구의2동
중곡동입구,127.0883528165,37.5548085902,광진구,중곡2동,서울특별시 광진구 중곡2동
제일은행사거리,127.0747339373,37.5335190155,광진구,자양3동,서울특별시 광진구 자양3동
동곡삼거리,127.0781645923,37.5635920634,광진구,중곡1동,서울특별시 광진구 중곡1동
건대병원입구,127.0715617177,37.5420823612,광진구,화양동,서울특별시 광진구 화양동
광진청소년수련관,127.1052370553,37.5460282079,광진구,광장동,서울특별시 광진구 광장동
강변역B,127.0937783982,37.5360716735,광진구,구의3동,서울특별시 광진구 구의3동
테크노마트앞.강변역,127.0937907639,37.5366276336,광진구,구의3동,서울특별시 광진구 구의3동
중곡동성당,127.0826023266,37.5629378497,광진구,중곡1동,서울특별시 광진구 중곡1동
종합의료복합단지,127.0834508988,37.5645076644,광진구,중곡3동,서울특별시 광진구 중곡3동
중곡역.국립정신건강센터,127.0843880135,37.5662076185,광진구,중곡3동,서울특별시 광진구 중곡3동
용곡삼거리,127.0832183979,37.5706266296,광진구,중곡3동,서울특별시 광진구 중곡3동
구의3동주민센터,127.092481354,37.5390592237,광진구,구의3동,서울특별시 광진구 구의3동
구의3동주민센터,127.0923754594,37.5391248446,광진구,구의3동,서울특별시 광진구 구의3동
광나루우편취급국,127.1064617565,37.5475139852,광진구,광장동,서울특별시 광진구 광장동
건대입구(가상),127.070835776,37.5402365937,광진구,화양동,서울특별시 광진구 화양동
중곡4동경로당입구앞,127.0939576264,37.5591360737,광진구,중곡4동,서울특별시 광진구 중곡4동
중곡아파트.종점,127.077803378,37.5664182737,광진구,중곡3동,서울특별시 광진구 중곡3동
긴고랑종점,127.096058,37.562159,광진구,중곡4동,서울특별시 광진구 중곡4동
정보도서관,127.1104763987,37.5502446412,광진구,광장동,서울특별시 광진구 광장동
강원설비앞,127.0901363151,37.5590045613,광진구,중곡4동,서울특별시 광진구 중곡4동
강원설비앞,127.0899331534,37.5589066521,광진구,중곡4동,서울특별시 광진구 중곡4동
중앙상회앞,127.0948013601,37.5601559483,광진구,중곡4동,서울특별시 광진구 중곡4동
한강호텔입구,127.1094422757,37.5484803719,광진구,광장동,서울특별시 광진구 광장동
중곡4동경로당입구앞,127.0942190339,37.5592229738,광진구,중곡4동,서울특별시 광진구 중곡4동
중곡아파트.기점,127.0781417284,37.5670255814,광진구,중곡3동,서울특별시 광진구 중곡3동
구.새마을금고앞,127.0872203477,37.5614468159,광진구,중곡2동,서울특별시 광진구 중곡2동
CU중곡긴고랑점앞,127.0930293718,37.5589265981,광진구,중곡4동,서울특별시 광진구 중곡4동
광나루현대아파트,127.107479,37.546501,광진구,광장동,서울특별시 광진구 광장동
긴고랑주차장,127.0955418801,37.5606772464,광진구,중곡4동,서울특별시 광진구 중곡4동
신성시장입구,127.0880142744,37.5585311657,광진구,중곡4동,서울특별시 광진구 중곡4동
중곡4동어린이집입구,127.0917033096,37.5586971831,광진구,중곡4동,서울특별시 광진구 중곡4동
신동아아파트,127.1053167962,37.5462720506,광진구,광장동,서울특별시 광진구 광장동
마을금고.브레드제과점,127.0892720532,37.5576560412,광진구,중곡4동,서울특별시 광진구 중곡4동
긴고랑입구,127.0886714823,37.5589021611,광진구,중곡4동,서울특별시 광진구 중곡4동
우리들약국,127.0903032993,37.5569174442,광진구,중곡4동,서울특별시 광진구 중곡4동
광남고.삼성아파트,127.1014374434,37.5419332458,광진구,광장동,서울특별시 광진구 광장동
해오름공원입구,127.0911365713,37.5563197422,광진구,중곡4동,서울특별시 광진구 중곡4동
현대3차아파트,127.0996612573,37.5404559333,광진구,광장동,서울특별시 광진구 광장동
기업은행.용마사거리,127.0814700959,37.5625158662,광진구,중곡1동,서울특별시 광진구 중곡1동
기원정사입구,127.0931520678,37.5548961701,광진구,중곡4동,서울특별시 광진구 중곡4동
찬양교회,127.0875671792,37.5540987456,광진구,중곡2동,서울특별시 광진구 중곡2동
송림식당앞,127.0767220278,37.5368053691,광진구,자양3동,서울특별시 광진구 자양3동
중곡우체국앞,127.0841086945,37.5612226659,광진구,중곡2동,서울특별시 광진구 중곡2동
영화사입구,127.094139486,37.5542176566,광진구,구의2동,서울특별시 광진구 구의2동
군자역,127.0799407203,37.5579211693,광진구,중곡2동,서울특별시 광진구 중곡2동
강변역.테크노마트앞,127.094874902,37.5363778613,광진구,구의3동,서울특별시 광진구 구의3동
자양중학교앞,127.0761050613,37.5346707182,광진구,자양3동,서울특별시 광진구 자양3동
